[
  { "lat" : 25.259756586637184, "lng" : 55.37441637359336, "title" : "ABOURA METALS"},
{ "lat" : 24.98312, "lng" : 55.082909, "title" : "ADANI GLOBAL FZE"},
{ "lat" : 25.269211, "lng" : 55.295103, "title" : "AL BADAWI GENERAL TRADING LLC"},
{ "lat" : 25.303774, "lng" : 55.390415, "title" : "AL DOHA METAL TRADING CO. LLC"},
{ "lat" : 25.306378180580147, "lng" : 55.41987201852419, "title" : "AL SAHAM AL FADHI METALS TRADING LLC"},
{ "lat" : 25.313431, "lng" : 55.403744, "title" : "AL ZAROONI &amp; AL KHWAJA GENERAL TRADING CO. LLC."},
{ "lat" : 25.258103, "lng" : 55.325977, "title" : "ALA INTERNATIONAL (USA), INC."},
{ "lat" : 25.069827, "lng" : 55.140971, "title" : "ALUCOP METALS DMCC"},
{ "lat" : 25.245598, "lng" : 55.312267, "title" : "ANM METALS L.L.C"},
{ "lat" : 25.277683999999997, "lng" : 55.309802999999995, "title" : "ASEEM TRADING F.Z.E"},
{ "lat" : 25.265954, "lng" : 55.382772, "title" : "BELCHINA (UAE) LTD FZE"},
{ "lat" : 25.212678, "lng" : 55.277045, "title" : "GLOBAL BUSINESS HOUSE FZC"},
{ "lat" : 25.270654, "lng" : 55.324572, "title" : "GULF STAR METALS L.L.C"},
{ "lat" : 25.25594978709051, "lng" : 55.29586301165682, "title" : "INDICAA GROUP LIMITED"},
{ "lat" : 25.17570582527043, "lng" : 55.28952472656238, "title" : "LUCKY GROUP"},
{ "lat" : 25.325461, "lng" : 55.49794, "title" : "METAAL EUROPE INTERNATIONAL FZC"},
{ "lat" : 25.069255, "lng" : 55.146094, "title" : "METAFRIQUE DMCC"},
{ "lat" : 25.069536, "lng" : 55.14096, "title" : "METWORLD DMCC"},
{ "lat" : 25.070888, "lng" : 55.143469, "title" : "MIJ INTERNATIONAL DMCC"},
{ "lat" : 25.254548, "lng" : 55.306224, "title" : "MIR METALS TRADING"},
{ "lat" : 25.069546, "lng" : 55.140982, "title" : "MO NICKEL INTERNATIONAL DMCC"},
{ "lat" : 25.18394, "lng" : 55.26093, "title" : "MOULDS &amp; METALS FZE"},
{ "lat" : 25.443357, "lng" : 55.54945, "title" : "MULTI METAL LINK FZC"},
{ "lat" : 25.255951, "lng" : 55.295854, "title" : "NEUERTH GENERAL TRADING LLC"},
{ "lat" : 25.075143, "lng" : 55.148572, "title" : "NICOMET ALLOYS DMCC"},
{ "lat" : 25.260051, "lng" : 55.373692, "title" : "NICRINOX FZE"},
{ "lat" : 25.329914, "lng" : 55.499198, "title" : "NIZMET TRADING FZE"},
{ "lat" : 25.324356, "lng" : 55.499747, "title" : "NOBLE ALLOYS &amp; MINERALS FZC"},
{ "lat" : 25.187107, "lng" : 55.26137, "title" : "PAN GLOBAL TRADING"},
{ "lat" : 25.302767, "lng" : 55.423331, "title" : "PGI GROUP"},
{ "lat" : 25.069509, "lng" : 55.143149, "title" : "POSCO STEEL &amp; ALLOYS DMCC"},
{ "lat" : 25.064247, "lng" : 55.13819, "title" : "PYRAMIDS METALS TRADING DMCC"},
{ "lat" : 25.257169, "lng" : 55.295571, "title" : "RKG INTERNATIONAL GROUP"},
{ "lat" : 25.319532, "lng" : 55.431602, "title" : "SAYED METAL"},
{ "lat" : 25.305021, "lng" : 55.395791, "title" : "SHARIF METALS, INTL LLC"},
{ "lat" : 25.378351, "lng" : 55.48766, "title" : "M/S. SUN METAL CASTING L.L.C"},
{ "lat" : 25.425818, "lng" : 55.528531, "title" : "SUPREME INTERNATIONAL FZC"},
{ "lat" : 24.992009, "lng" : 55.106968, "title" : "TRANS GULF TRADING LLC"},
{ "lat" : 25.068451, "lng" : 55.142972, "title" : "UNIVERSAL METAL TRADING DMCC"},
{ "lat" : 25.068441, "lng" : 55.142951, "title" : "WHITE METAL ALLOYS INDUSTRIES FZ-LLC"},
{ "lat" : 29.283573, "lng" : 47.715372, "title" : "METAL &amp; RECYCLING COMPANY"},
{ "lat" : 33.896949, "lng" : 35.503087, "title" : "ABDALLAH ALI MATAR &amp; SONS"},
{ "lat" : 33.45697, "lng" : 35.432083, "title" : "AKS LEBANON"},
{ "lat" : 33.865564, "lng" : 35.553045, "title" : "DIAMETAL SAL"},
{ "lat" : 33.860169, "lng" : 35.485855, "title" : "SHARMETAL TRADING CO."},
{ "lat" : 33.833797, "lng" : 35.544164, "title" : "SOMETAL SAL"},
{ "lat" : 33.879059, "lng" : 35.549453, "title" : "SROUR FOR SCRAP METALS S.A.R.L"},
{ "lat" : 26.340228, "lng" : 50.198738, "title" : "ABDULLAH A.M. ALKHODARI SONS CO"},
{ "lat" : 26.459374, "lng" : 50.00954, "title" : "ALBAWARDI MATERIALS RECYCLING CO. SAMARCO"},
{ "lat" : 26.454341, "lng" : 50.010784, "title" : "AL-QARYAN GROUP FOR TRADING"},
{ "lat" : 21.533096, "lng" : 39.2075, "title" : "ASSAGGAFF TRADING EST"},
{ "lat" : 26.701525, "lng" : 49.900476, "title" : "FOUR SEASONS RECYCLE METAL"},
{ "lat" : 31.49391, "lng" : 39.918512, "title" : "MAADEN ALUMINIUM COMPANY"},
{ "lat" : 21.523558, "lng" : 41.919647, "title" : "MAMETALS PRESS SCRAP CO"},
{ "lat" : 24.751452, "lng" : 46.720441, "title" : "METALS CORNER TRADE &amp; INDUSTRY CO.LTD"},
{ "lat" : 21.626653, "lng" : 39.161056, "title" : "NESMA RECYCLING CO LTD"},
{ "lat" : 26.237475, "lng" : 50.538751, "title" : "BAHRAIN SCRAPMOULD WLL"},
{ "lat" : 35.689197, "lng" : 51.388974, "title" : "BEHIN BAZ AFARIN ALBORZ CO"},
{ "lat" : 35.751168, "lng" : 51.408676, "title" : "MOGHADASI METAL TRADING CO"},
{ "lat" : 35.757432, "lng" : 51.409447, "title" : "ROYAL METALS TRDING CO.LTD"},
{ "lat" : 35.581567, "lng" : 51.534368, "title" : "SAFAEI TRADING"},
{ "lat" : 15.263008, "lng" : 44.251241, "title" : "KHALIL METALS INTERNATIONAL"},
{ "lat" : 31.995758, "lng" : 34.94884, "title" : "I.R. METALS FOR INDUSTRY LTD"},
{ "lat" : 31.844094, "lng" : 34.701502, "title" : "SHAUL GUETA LTD"},
{ "lat" : 32.899902, "lng" : 35.086427, "title" : "ZOHAR S.B.A LTD"},
{ "lat" : 22.258652, "lng" : 71.192381, "title" : "AADI IMPORTS PVT LTD"},
{ "lat" : 22.247296, "lng" : 73.191636, "title" : "AMBICA STEELS LIMITED"},
{ "lat" : 28.692378, "lng" : 77.151528, "title" : "AVTAR STEEL LIMITED"},
{ "lat" : 23.048627, "lng" : 72.588606, "title" : "B.R METAL ALLOYS PVT LTD"},
{ "lat" : 22.445642, "lng" : 70.047326, "title" : "BALDI METALS &amp; ALLOYS"},
{ "lat" : 28.539634, "lng" : 77.238244, "title" : "CENTURION MARKETING PVT LTD"},
{ "lat" : 22.707481, "lng" : 88.366551, "title" : "CENTURY ALUMINIUM MFG CO LTD"},
{ "lat" : 28.502073, "lng" : 77.209374, "title" : "CENTURY METAL RECYCLING PVT LTD"},
{ "lat" : 21.080266, "lng" : 72.845514, "title" : "CUPRO RECYCLING PVT.LTD."},
{ "lat" : 10.998055, "lng" : 77.014897, "title" : "ELGI RUBBER COMPANY LTD"},
{ "lat" : 26.8889, "lng" : 75.822457, "title" : "GRAVITA INDIA LIMITED"},
{ "lat" : 19.08183, "lng" : 72.886986, "title" : "GRP LIMITED"},
{ "lat" : 22.540602, "lng" : 88.35401, "title" : "ISPAT UDYOG/ISPAT EXPORTS PVT.LTD"},
{ "lat" : 22.570668, "lng" : 88.354641, "title" : "J.G. CHEMICALS PRIVATE LIMITED"},
{ "lat" : 10.913221, "lng" : 77.036902, "title" : "JAYACHANDRAN ALLOYS PRIVATE LIMITED"},
{ "lat" : 23.045896, "lng" : 72.537584, "title" : "LAXCON STEELS LTD."},
{ "lat" : 18.959023, "lng" : 72.823549, "title" : "M/S LAXMI STEEL"},
{ "lat" : 19.017073, "lng" : 72.848899, "title" : "LEELA TRADE STEEL AND COMMODITIES INDIA (P) LTD"},
{ "lat" : 22.470702, "lng" : 70.05773, "title" : "MASCOT METAL TRADERS"},
{ "lat" : 28.55364, "lng" : 77.233909, "title" : "MET GLOBE (INDIA) PVT. LTD"},
{ "lat" : 19.136514, "lng" : 72.832443, "title" : "METALSCRAP RECYCLING MUMBAI PVT.LTD"},
{ "lat" : 19.120321, "lng" : 72.861124, "title" : "METCO MARKETING (INDIA) PVT LTD."},
{ "lat" : 28.628659, "lng" : 77.320784, "title" : "METENERE LIMITED"},
{ "lat" : 28.560065, "lng" : 77.271764, "title" : "MG TRADE SERVICES (INDIA) PVT.LTD"},
{ "lat" : 19.161375, "lng" : 72.850925, "title" : "MIRAJ METALS"},
{ "lat" : 12.941095, "lng" : 77.524725, "title" : "MSC IMPEX"},
{ "lat" : 19.107555, "lng" : 72.864719, "title" : "M/S MTC BUSINESS PVT. LTD."},
{ "lat" : 28.148736, "lng" : 77.332026, "title" : "NAMO ALLOYS PVT. LTD"},
{ "lat" : 19.079202, "lng" : 72.891423, "title" : "NATHANI GROUP OF COMPANIES"},
{ "lat" : 18.925573, "lng" : 72.824222, "title" : "NIHON ISPAT PRIVATE LTD."},
{ "lat" : 17.407387, "lng" : 78.427901, "title" : "NILE LIMITED"},
{ "lat" : 12.985767, "lng" : 77.5623, "title" : "OSWAL ALLOYS PRIVATE LIMITED"},
{ "lat" : 28.673334, "lng" : 77.292413, "title" : "PILOT INDUSTRIES LTD"},
{ "lat" : 13.067068, "lng" : 80.237827, "title" : "PONDY OXIDES AND CHEMICALS LIMITED"},
{ "lat" : 13.04618, "lng" : 80.246155, "title" : "R V STEELS AND POWER PVT LTD."},
{ "lat" : 28.557625, "lng" : 77.26494, "title" : "SHABRO METTALLIC PVT. LTD."},
{ "lat" : 28.566362, "lng" : 77.133913, "title" : "SHREE BALAJI ALUMINICAST PVT. LTD"},
{ "lat" : 22.543198, "lng" : 88.356051, "title" : "SHRI BADRINARAIN ALLOYS &amp; STEELS LIMITED"},
{ "lat" : 19.156257, "lng" : 72.833073, "title" : "SINGHAL COMMODITIES PVT. LTD."},
{ "lat" : 18.950801, "lng" : 72.837137, "title" : "STEELS &amp; SCRAP"},
{ "lat" : 19.173561, "lng" : 72.868803, "title" : "STRATEGIC METALS PVT. LTD"},
{ "lat" : 23.022514, "lng" : 72.588874, "title" : "SUNIL METAL CORPORATION"},
{ "lat" : 28.563044, "lng" : 77.239289, "title" : "TRIDENT METALS"},
{ "lat" : 17.02434, "lng" : 73.332552, "title" : "VARRON INDUSTRIES LIMITED"},
{ "lat" : 19.779097, "lng" : 72.806681, "title" : "VIRAJ PROFILES LTD."},
{ "lat" : 28.502073, "lng" : 77.209374, "title" : "VISTAS TRADING"},
{ "lat" : 24.849801, "lng" : 67.008065, "title" : "A.B.M. CORPORATION"},
{ "lat" : 15.263008, "lng" : 44.251241, "title" : "ALLIED METAL IMPEX"},
{ "lat" : 24.861462, "lng" : 67.009939, "title" : "ANDREW AGENCY"},
{ "lat" : 32.148708, "lng" : 74.172734, "title" : "B.R METALS"},
{ "lat" : 32.174754, "lng" : 74.182357, "title" : "CANNON ENTERPRISES"},
{ "lat" : 32.154378, "lng" : 74.184225, "title" : "ESSKAY &amp; SONS"},
{ "lat" : 32.154378, "lng" : 74.184225, "title" : "IRFAN ENGINEERING INDUSTRIES"},
{ "lat" : 32.154378, "lng" : 74.184225, "title" : "JAB ENTERPRISES"},
{ "lat" : 32.160026, "lng" : 74.188949, "title" : "JAWAD BROTHERS"},
{ "lat" : 24.861462, "lng" : 67.009939, "title" : "KHALEEJ TRADING"},
{ "lat" : 32.134539, "lng" : 74.208761, "title" : "LONEIMPEX"},
{ "lat" : 32.194122, "lng" : 74.212564, "title" : "M.U.A.Z. CORPORATION"},
{ "lat" : 24.849801, "lng" : 67.008065, "title" : "STC (PRIVATE) LIMITED"},
{ "lat" : 33.991828, "lng" : 71.560524, "title" : "M/S TKM ENTERPRISES"},
{ "lat" : -37.905223, "lng" : 145.000114, "title" : "BERJAK NOMINEES (VIC) PTY LTD"},
{ "lat" : -37.807069, "lng" : 145.028407, "title" : "CUPRAL INTERNATIONAL PTY LTD"},
{ "lat" : -33.730619, "lng" : 151.223413, "title" : "K M SCRAP METALS PTY LTD"},
{ "lat" : -37.837763, "lng" : 144.993826, "title" : "MINEMET AUSTRALASIA PTY LTD"},
{ "lat" : -37.830158, "lng" : 144.77825, "title" : "NORTRADE INTERNATIONAL PTY LTD"},
{ "lat" : -33.945073, "lng" : 151.215925, "title" : "SELL &amp; PARKER PTY LTD"},
{ "lat" : -33.939486, "lng" : 151.200182, "title" : "SIMS METAL MANAGEMENT AUSTRALIA LIMITED"},
{ "lat" : -33.73238, "lng" : 150.9648, "title" : "SUPERIOR METALS TRADING PTY LTD"},
{ "lat" : 31.986695, "lng" : 35.876939, "title" : "EUROGULF MINERALS AND METALS LTD"},
{ "lat" : 31.956578, "lng" : 35.945695, "title" : "METALS BANK CO. LTD."},
{ "lat" : 3.006613, "lng" : 101.492194, "title" : "ASIA GLOBAL EXIM SDN. BHD"},
{ "lat" : 3.080398, "lng" : 101.450951, "title" : "PM STEEL AND ALLOYS INDUSTRIES SDN. BHD."},
{ "lat" : 1.627231, "lng" : 103.698819, "title" : "TAIKO METALS SDN BHD"},
{ "lat" : 1.471359, "lng" : 103.911266, "title" : "YE CHIU METAL SMELTING SDN BHD"},
{ "lat" : 50.798114, "lng" : 3.098016, "title" : "RUEL RECYCLING BVBA"},
{ "lat" : 51.024234, "lng" : 3.122549, "title" : "SAPA RC PROFILES NV/SA"},
{ "lat" : 50.602837, "lng" : 5.893332, "title" : "SEOS"},
{ "lat" : 51.255929, "lng" : 4.391254, "title" : "C.STEINWEG BELGIUM N.V."},
{ "lat" : 50.864416, "lng" : 4.353517, "title" : "NV A. STEVENS &amp; CO SA"},
{ "lat" : 51.317831, "lng" : 4.81741, "title" : "METALLO-CHIMIQUE NV"},
{ "lat" : 51.159268, "lng" : 4.338821, "title" : "ORION METAL RECYCLING NV"},
{ "lat" : 50.669968, "lng" : 4.615563, "title" : "PHOENIX PLUS SA"},
{ "lat" : 50.901586, "lng" : 3.446003, "title" : "RECUTEX NV"},
{ "lat" : 51.038482, "lng" : 5.290413, "title" : "REZINAL NV"},
{ "lat" : 50.588988, "lng" : 4.364654, "title" : "GANTRY SA"},
{ "lat" : 51.218715, "lng" : 4.354969, "title" : "GEMINI CORPORATION NV"},
{ "lat" : 50.844549, "lng" : 4.355236, "title" : "JEAN GOLDSCHMIDT INTERNATIONAL SA"},
{ "lat" : 51.065146, "lng" : 2.676958, "title" : "MATTHEEUWS ERIC NV TRANSPORT"},
{ "lat" : 51.199212, "lng" : 5.164232, "title" : "METAALHANDEL WERRENS NV"},
{ "lat" : 50.402463, "lng" : 4.511018, "title" : "GROUPE COMET"},
{ "lat" : 51.159268, "lng" : 4.338821, "title" : "CRAENHALS METAL TERMINAL NV"},
{ "lat" : 50.789412, "lng" : 3.105504, "title" : "NV GALLOOMETAL"},
{ "lat" : 51.121901, "lng" : 4.014303, "title" : "CAPIAU RECYCLING"},
{ "lat" : 51.264156, "lng" : 4.413886, "title" : "CARGOLOGIN"},
{ "lat" : 50.835108, "lng" : 3.353179, "title" : "CASIER RECYCLING NV"},
{ "lat" : 51.203769, "lng" : 4.411264, "title" : "C.M.R. INTERNATIONAL NV"},
{ "lat" : 50.660725, "lng" : 4.632701, "title" : "3L INTERNATIONAL SPRL"},
{ "lat" : 51.260964, "lng" : 4.247619, "title" : "BELGIAN SCRAP TERMINAL NV"},
{ "lat" : -22.834788, "lng" : -43.303176, "title" : "GRUPO MELO"},
{ "lat" : -23.682109, "lng" : -46.583051, "title" : "TRUFER COMERCIO DE SUCATAS LTD"},
{ "lat" : -23.584352, "lng" : -46.676992, "title" : "TVD TRADING BRASIL LTDA"},
{ "lat" : 42.135408, "lng" : 24.74529, "title" : "KCM AD"},
{ "lat" : 45.636618, "lng" : -73.56421, "title" : "AMERICAN IRON &amp; METAL LP"},
{ "lat" : 45.587125, "lng" : -73.627466, "title" : "BONUS METAL CANADA INC METAUX BONI CANADA INC"},
{ "lat" : 43.766288, "lng" : -79.551613, "title" : "COMBINED METAL INDUSTRIES"},
{ "lat" : 43.647608, "lng" : -79.347601, "title" : "COOPERS IRON &amp; METAL INC"},
{ "lat" : 43.577973, "lng" : -79.621479, "title" : "METALWIZE INC"},
{ "lat" : 43.518192, "lng" : -79.679849, "title" : "NI-MET METALS INC"},
{ "lat" : 43.774272, "lng" : -79.326081, "title" : "RICHFIELD INDUSTRIES INC"},
{ "lat" : 43.744711, "lng" : -79.655433, "title" : "TRIPLE M METAL"},
{ "lat" : -33.426954, "lng" : -70.612994, "title" : "SUDAMERICANA DE METALES COMERCIAL LTDA (SUDMETAL)"},
{ "lat" : 30.088316, "lng" : 31.332893, "title" : "EGYPTIAN AMERICAN STEEL ROLLING CO"},
{ "lat" : 30.049818, "lng" : 31.196271, "title" : "EZZ STEEL"},
{ "lat" : 36.778261, "lng" : -119.417932, "title" : "INVERSIONES MATERIALES S DE RL DE CV-INVEMA"},
{ "lat" : 47.687457, "lng" : 17.650397, "title" : "FEMKER KFT"},
{ "lat" : 53.332448, "lng" : -6.249302, "title" : "DELTASTEEL IRELAND LTD"},
{ "lat" : 54.689085, "lng" : 25.275819, "title" : "JSC VC BALTIC"},
{ "lat" : 54.902149, "lng" : 24.029374, "title" : "ZALVARIS UAB"},
{ "lat" : 50.064573, "lng" : 5.989968, "title" : "ALCUILUX DESOX S.A"},
{ "lat" : 49.616343, "lng" : 6.09214, "title" : "NFM ALLOYS S.A."},
{ "lat" : 21.811322, "lng" : -100.93108, "title" : "COMMET"},
{ "lat" : 25.649455, "lng" : -100.32905, "title" : "DEACERO SAPI DE CV"},
{ "lat" : 23.634501, "lng" : -102.552784, "title" : "DISTRIBUIDORA DE METALES XALOSTOC SA DE CV"},
{ "lat" : 32.528608, "lng" : -117.022031, "title" : "GLOREM SC"},
{ "lat" : 25.776263, "lng" : -100.460943, "title" : "CORPORATIVO NEMAK, SA DE CV"},
{ "lat" : 37.856706, "lng" : -91.929468, "title" : "RIISA SA DE CV"},
{ "lat" : 33.60551, "lng" : -7.518004, "title" : "FILMET S.A."},
{ "lat" : 33.000007, "lng" : -7.616664, "title" : "MANAR STAR TRADING"},
{ "lat" : 38.733973, "lng" : -9.394196, "title" : "ECO-MODUS LDA"},
{ "lat" : 39.722192, "lng" : -8.9743, "title" : "METAL MARINHA"},
{ "lat" : 40.689424, "lng" : -8.479666, "title" : "QUIMIALMEL-QUIMICOS E MINERAIS, LDA"},
{ "lat" : 39.567278, "lng" : -8.511931, "title" : "RVO"},
{ "lat" : 40.618422, "lng" : -8.733524, "title" : "STOCK METALS - RAW MATERIALS &amp; COMMODITIES, LDA"},
{ "lat" : 35.4606, "lng" : 128.2132, "title" : "DAE HAN STEEL"},
{ "lat" : 37.162683, "lng" : 127.022254, "title" : "HAESUNG CORPORATION"},
{ "lat" : 35.41846, "lng" : 129.339448, "title" : "SEJIN METAL CO. LTD."},
{ "lat" : 43.281743, "lng" : 5.374108, "title" : "GREEN BIRD"},
{ "lat" : 44.92079, "lng" : 25.454922, "title" : "COS TARGOVISTE S.A."},
{ "lat" : 44.416645, "lng" : 26.130757, "title" : "ENERGROM S.A."},
{ "lat" : 45.666905, "lng" : 25.63349, "title" : "S.C. REMAT BRASOV"},
{ "lat" : 45.146031, "lng" : 24.367146, "title" : "SC REMAT VALCEA"},
{ "lat" : 44.367891, "lng" : 26.143846, "title" : "REMATHOLDING CO. SRL"},
{ "lat" : 55.739963, "lng" : 37.847419, "title" : "IC VTORMET"},
{ "lat" : 59.93428, "lng" : 30.335099, "title" : "NORD-METALL LTD"},
{ "lat" : 59.851988, "lng" : 30.24391, "title" : "ROSMET LTD"},
{ "lat" : 55.771516, "lng" : 37.595232, "title" : "TYOR GROUP"},
{ "lat" : -29.850955, "lng" : 31.037374, "title" : "ACHILLES COMMODITIES TRADING CC"},
{ "lat" : -26.28103, "lng" : 27.92962, "title" : "AMALGAMATED METALS RECYCLING PTY LTD"},
{ "lat" : -26.12953, "lng" : 28.0489, "title" : "THE NEW RECLAMATION GROUP"},
{ "lat" : -29.933923, "lng" : 30.976103, "title" : "NON-FERROUS METAL WORKS (SA) PTY LTD"},
{ "lat" : -26.261052, "lng" : 28.190208, "title" : "POWER METAL RECYCLERS"},
{ "lat" : -33.933206, "lng" : 18.552253, "title" : "SA METAL GROUP"},
{ "lat" : 22.923193, "lng" : 120.248945, "title" : "FA CHIA METAL ENTERPRISE CO. LTD"},
{ "lat" : 25.056278, "lng" : 121.512539, "title" : "GREEN FINIX INTERNATIONAL CO. LTD."},
{ "lat" : 23.058534, "lng" : 120.135835, "title" : "HSKU RAW MATERIAL LTD"},
{ "lat" : 25.032576, "lng" : 121.548345, "title" : "KAPPA RESOURCES INC"},
{ "lat" : 22.877861, "lng" : 120.33202, "title" : "KING MODERN METAL CO. LTD"},
{ "lat" : 25.032969, "lng" : 121.565418, "title" : "PACIEN DEVELOPMENT CORP."},
{ "lat" : 22.971682, "lng" : 120.215734, "title" : "REGAL INTERNATIONAL GROUP LIMITED"},
{ "lat" : 22.627278, "lng" : 120.301435, "title" : "SIGMA BROTHERS INC"},
{ "lat" : 12.970764, "lng" : 101.216377, "title" : "ALVA ALUMINIUM LIMITED"},
{ "lat" : 13.806521, "lng" : 100.493607, "title" : "LOHATHAI STAINLESS CO. LTD"},
{ "lat" : 13.778541, "lng" : 100.610393, "title" : "WN ASSOCIATE COMPANY LIMITED"},
{ "lat" : 48.478684, "lng" : 37.099362, "title" : "UKRMET LTD"},
{ "lat" : 21.041246, "lng" : 105.790393, "title" : "MAGNETIC BUSINESS JOINT STOCK COMPANY"},
{ "lat" : 21.027764, "lng" : 105.83416, "title" : "OTAL RECYCLING COMPANY LIMITED"},
{ "lat" : 10.762787, "lng" : 106.657095, "title" : "PRIMA STEEL COMPANY LTD"},
{ "lat" : 49.174906, "lng" : 16.627082, "title" : "REMAT SRO"},
{ "lat" : 35.040016, "lng" : 33.123905, "title" : "ECOONOMIDES METAL RECYCLING LTD"},
{ "lat" : 35.040016, "lng" : 33.123905, "title" : "EPIPHANIOU SCRAP METALS LTD"},
{ "lat" : 54.920726, "lng" : 9.817732, "title" : "AKATA SCRAP RECYCLING APS"},
{ "lat" : 56.21006, "lng" : 10.214691, "title" : "A/S BALTIC CONTROL LTD AARHUS"},
{ "lat" : 55.111909, "lng" : 10.239287, "title" : "ELDAN RECYCLING A/S"},
{ "lat" : 55.426671, "lng" : 10.389577, "title" : "H.J. HANSEN RECYCLING INDUSTRY LTD A/S"},
{ "lat" : 55.99791, "lng" : 12.505495, "title" : "KVISTGARD JERN &amp; METAL A/S"},
{ "lat" : 55.041544, "lng" : 9.42228, "title" : "RIMECO - A/S"},
{ "lat" : 55.403692, "lng" : 11.355257, "title" : "SCANMETALS A/S"},
{ "lat" : 55.734111, "lng" : 12.481246, "title" : "UNISCRAP A/S"},
{ "lat" : 13.710045, "lng" : -89.137253, "title" : "FIBERTEX, SA DE CV"},
{ "lat" : 41.793184, "lng" : 44.755308, "title" : "LEGOMETAL LTD."},
{ "lat" : 18.54505, "lng" : -72.301893, "title" : "G.S. INDUSTRIES S.A. - HAITI RECYCLING"},
{ "lat" : 35.665493, "lng" : 139.770848, "title" : "HANWA CO., LTD."},
{ "lat" : 35.673015, "lng" : 139.723018, "title" : "HONDA TRADING CORPORATION"},
{ "lat" : 36.761399, "lng" : 137.097719, "title" : "KUROTANI CORPORATION"},
{ "lat" : 42.843867, "lng" : 141.598837, "title" : "MATEC INC"},
{ "lat" : 35.665525, "lng" : 139.717945, "title" : "METZ CORPORATION"},
{ "lat" : 35.688656, "lng" : 139.763475, "title" : "MITSUBISHI MATERIALS CORPORATION"},
{ "lat" : 35.697542, "lng" : 139.814335, "title" : "MITSUI KINZOKU TRADING CO. LTD"},
{ "lat" : 35.084796, "lng" : 137.017654, "title" : "SANCO KINZOKU CO., LTD"},
{ "lat" : 34.538545, "lng" : 135.559833, "title" : "SHINSEI CO.LTD"},
{ "lat" : 35.706108, "lng" : 139.937721, "title" : "USUI METALS CORPORATION"},
{ "lat" : 56.921984, "lng" : 24.208789, "title" : "METALEKSPO"},
{ "lat" : 56.509177, "lng" : 20.9974, "title" : "SIA TOLMETS"},
{ "lat" : -36.925658, "lng" : 174.807181, "title" : "HAYES METALS"},
{ "lat" : -41.239869, "lng" : 174.909737, "title" : "MACAULAY METALS LIMITED"},
{ "lat" : 41.336286, "lng" : 19.756191, "title" : "ZODIAC SH. P.K."},
{ "lat" : 48.228335, "lng" : 13.030069, "title" : "AMAG CASTING GMBH"},
{ "lat" : 47.202776, "lng" : 14.694643, "title" : "ATM RECYCLINGSYSTEMS GMBH"},
{ "lat" : 48.101247, "lng" : 13.900181, "title" : "GEBR. GRATZ GMBH"},
{ "lat" : 48.227782, "lng" : 13.02591, "title" : "HAMMERER ALUMINIUM INDUSTRIES"},
{ "lat" : 47.34882, "lng" : 9.657168, "title" : "LOACKER RECYCLING GMBH"},
{ "lat" : 47.429188, "lng" : 11.874168, "title" : "MONTANWERKE BRIXLEGG AG"},
{ "lat" : 48.121254, "lng" : 14.906906, "title" : "MULLER-GUTTENBRUNN GMBH"},
{ "lat" : 47.885696, "lng" : 13.120549, "title" : "PIERINGER ABFALL VERWERTUNG GMBH"},
{ "lat" : 48.260604, "lng" : 14.32196, "title" : "RAUCH RECYCLING GMBH &amp; CO KG ALTPAPIER - KUNSTSTOFFABFALLE"},
{ "lat" : 48.170786, "lng" : 15.092199, "title" : "SCHAUFLER GMBH"},
{ "lat" : 48.161931, "lng" : 16.471935, "title" : "SCHOLZ ROHSTOFFHANDEL GMBH"},
{ "lat" : 47.053899, "lng" : 15.425988, "title" : "SCHROTTWOLF GMBH"},
{ "lat" : 22.458665, "lng" : 114.029704, "title" : "CHIHO TIANDE HK LTD"},
{ "lat" : 38.914687, "lng" : 121.612325, "title" : "DONGDO GROUP CO.LTD"},
{ "lat" : 22.370268, "lng" : 114.136884, "title" : "FUKUTOMI COMPANY LTD"},
{ "lat" : 22.282514, "lng" : 114.154043, "title" : "FULL WISE INTERNATIONAL LTD"},
{ "lat" : 23.326504, "lng" : 112.733773, "title" : "GRAND METAL GROUP LIMITED"},
{ "lat" : 22.286525, "lng" : 114.151479, "title" : "HK METAL TRADING LIMITED"},
{ "lat" : 22.297776, "lng" : 114.1714, "title" : "MAGIC BRIGHT LTD"},
{ "lat" : 23.129029, "lng" : 113.041113, "title" : "NANHAI BOYINGDA METAL RECOVER CO.LTD"},
{ "lat" : 31.190404, "lng" : 121.513961, "title" : "NANTONG WALSTER TRADING Co.LTD"},
{ "lat" : 22.277549, "lng" : 114.168657, "title" : "ONE STEEL RECYCLING HONG KONG LTD"},
{ "lat" : 22.285979, "lng" : 114.191492, "title" : "POLYLUCK METAL TRADING COMPANY"},
{ "lat" : 22.318567, "lng" : 114.179606, "title" : "REMATE LTD"},
{ "lat" : 22.278271, "lng" : 114.171882, "title" : "SANSING LTD"},
{ "lat" : 22.274724, "lng" : 114.171896, "title" : "SIMS METAL MANAGEMENT ASIA LTD"},
{ "lat" : 38.914687, "lng" : 121.612325, "title" : "SINO-TRUST CORPORATION"},
{ "lat" : 39.451782, "lng" : 117.426207, "title" : "TIANJIN HECHANG COPPER INDUSTRY CO. LTD"},
{ "lat" : 39.030713, "lng" : 121.686424, "title" : "TOP-EASTERN GROUP OF COMPANIES"},
{ "lat" : 22.286375, "lng" : 114.14856, "title" : "UNITED NON-FERROUS TRADING LTD"},
{ "lat" : 22.339599, "lng" : 114.149206, "title" : "WING FAT RECYCLING METALS COMPANY LIMITED"},
{ "lat" : 22.297485, "lng" : 114.169409, "title" : "WING SANG LUNG LTD"},
{ "lat" : 23.108711, "lng" : 113.110576, "title" : "WINMEX JANHOUT METAL LTD"},
{ "lat" : 22.35747, "lng" : 114.126329, "title" : "W.S.F. GROUP LTD"},
{ "lat" : 30.169665, "lng" : 121.266579, "title" : "ZHANCI METAL INDUSTRY CO. LTD"},
{ "lat" : 61.184213, "lng" : 21.737382, "title" : "EURAJOEN ROMU OY"},
{ "lat" : 62.011788, "lng" : 23.025499, "title" : "FINCUMET OY"},
{ "lat" : 64.25999, "lng" : 27.74562, "title" : "KAJAANIN ROMU OY"},
{ "lat" : 60.187658, "lng" : 24.795112, "title" : "KUUSAKOSKI OY"},
{ "lat" : 60.169856, "lng" : 24.938379, "title" : "LASSILA &amp; TIKANOJA PLC"},
{ "lat" : 62.637282, "lng" : 29.589374, "title" : "MANTSINEN GROUP LTD OY"},
{ "lat" : 60.169856, "lng" : 24.938379, "title" : "PAPERINKERAYS OY"},
{ "lat" : 60.539354, "lng" : 27.170096, "title" : "UNINOVA OY"},
{ "lat" : 45.963486, "lng" : 5.336676, "title" : "ACMET"},
{ "lat" : 49.461636, "lng" : 5.858587, "title" : "ANDRIN SA"},
{ "lat" : 48.919344, "lng" : 2.345539, "title" : "BARTIN RECYCLING GROUP"},
{ "lat" : 50.692855, "lng" : 2.413802, "title" : "BAUDELET METAUX"},
{ "lat" : 50.673498, "lng" : 3.055238, "title" : "BOONE-COMENOR METALIMPEX"},
{ "lat" : 47.019246, "lng" : 4.912838, "title" : "BOURGOGNE RECYCLAGE"},
{ "lat" : 48.916238, "lng" : 2.209287, "title" : "BRAMI SUPERALLIAGES"},
{ "lat" : 48.880374, "lng" : 2.302834, "title" : "COMPAGNIE FRANCAISE DES METAUX NON FERREUX"},
{ "lat" : 48.875589, "lng" : 2.308174, "title" : "LA COMPAGNIE DES MATIERES PREMIERES"},
{ "lat" : 48.012515, "lng" : 7.531697, "title" : "CONSTELLIUM FRANCE SAS"},
{ "lat" : 48.881479, "lng" : 2.301802, "title" : "COPEX"},
{ "lat" : 48.875532, "lng" : 2.688728, "title" : "CORNEC SAS"},
{ "lat" : 46.874236, "lng" : 1.586684, "title" : "DANIEL HENSCHEL SAS"},
{ "lat" : 48.840197, "lng" : 2.404356, "title" : "DERICHEBOURG"},
{ "lat" : 48.783328, "lng" : 2.599021, "title" : "DROS-ENGINEERING"},
{ "lat" : 48.980817, "lng" : 1.743841, "title" : "ECORE/GDE"},
{ "lat" : 47.470701, "lng" : -0.552176, "title" : "EMC TRADING"},
{ "lat" : 43.390916, "lng" : 5.233463, "title" : "EPUR"},
{ "lat" : 45.459904, "lng" : 4.399781, "title" : "EUREKA RECUPERATION"},
{ "lat" : 46.009336, "lng" : 6.173959, "title" : "FERGEX SA"},
{ "lat" : 45.532569, "lng" : 4.862609, "title" : "FERINOX"},
{ "lat" : 48.87851, "lng" : 2.253174, "title" : "HARMONIE RECYCLAGE"},
{ "lat" : 48.850575, "lng" : 2.498763, "title" : "MANCO"},
{ "lat" : 46.078168, "lng" : 2.788872, "title" : "MTB"},
{ "lat" : 50.42893, "lng" : 2.83183, "title" : "NEXANS"},
{ "lat" : 48.603303, "lng" : -1.205909, "title" : "NEXT METAL"},
{ "lat" : 49.474204, "lng" : 0.894337, "title" : "NORVAL"},
{ "lat" : 48.876269, "lng" : 2.31175, "title" : "PAPREC RECYCLAGE"},
{ "lat" : 44.809938, "lng" : -0.724484, "title" : "PENA METAUX SA"},
{ "lat" : 45.54151, "lng" : 3.248128, "title" : "PRAXY CENTRE"},
{ "lat" : 43.329113, "lng" : 5.372361, "title" : "PROVENCALE DES FERRAILLES PROFER"},
{ "lat" : 49.771852, "lng" : 4.710341, "title" : "RECYLEX"},
{ "lat" : 48.136562, "lng" : -1.517781, "title" : "EBS LE RELAIS BRETAGNE"},
{ "lat" : 49.332068, "lng" : 3.290684, "title" : "EBS LE RELAIS NORD-EST ILE DE FRANCE"},
{ "lat" : 48.967912, "lng" : 2.03107, "title" : "EBS LE RELAIS VAL DE FRANCE"},
{ "lat" : 51.038523, "lng" : 2.372952, "title" : "SAGA FRANCE - WORLD TRANSPORT &amp; LOGISTICS"},
{ "lat" : 45.18014, "lng" : 0.776757, "title" : "SIRMET NEGOCE"},
{ "lat" : 47.376429, "lng" : 0.670579, "title" : "SLG RECYCLING"},
{ "lat" : 48.293944, "lng" : 6.972953, "title" : "SOFREST DIFFUSION"},
{ "lat" : 45.669367, "lng" : 0.182678, "title" : "SOREMO"},
{ "lat" : 43.461574, "lng" : 1.33071, "title" : "SOVAMEP"},
{ "lat" : 45.634068, "lng" : 4.82185, "title" : "UNIVERSAL STOCK METAL"},
{ "lat" : 43.660593, "lng" : 4.013409, "title" : "VALIKA ETS ALUMETALI"},
{ "lat" : 50.37827, "lng" : 3.523999, "title" : "VAL METAL S.A.S"},
{ "lat" : 48.919344, "lng" : 2.345539, "title" : "VEOLIA PROPRETE FRANCE RECYCLING"},
{ "lat" : 44.797, "lng" : -0.541535, "title" : "VIDALIES S.A."},
{ "lat" : 48.849607, "lng" : 2.325678, "title" : "WIDELY WORLD GLOBAL SARL"},
{ "lat" : 51.52539, "lng" : 7.43301, "title" : "ALBA SCRAP AND METALS HOLDING GMBH"},
{ "lat" : 50.814637, "lng" : 6.273359, "title" : "ALBERT HOFFMANN GMBH"},
{ "lat" : 50.697095, "lng" : 7.12474, "title" : "ASCON GMBH"},
{ "lat" : 48.142275, "lng" : 11.549848, "title" : "ATEC BUSINESS INFORMATION GMBH"},
{ "lat" : 51.60646, "lng" : 7.50755, "title" : "AURUBIS AG"},
{ "lat" : 51.91225, "lng" : 8.43031, "title" : "BAUVERLG BV GMBH"},
{ "lat" : 47.521682, "lng" : 10.274903, "title" : "BHS SONTHOFEN GMBH"},
{ "lat" : 49.964537, "lng" : 11.600214, "title" : "JEAN BILSHEIM GMBH"},
{ "lat" : 53.80122, "lng" : 10.38571, "title" : "BOROWSKI &amp; HOPP GMBH &amp; CO KG"},
{ "lat" : 49.011915, "lng" : 8.333724, "title" : "CRONIMET FERROLEG GMBH"},
{ "lat" : 52.316145, "lng" : 10.239008, "title" : "DEUMO DEUTSCHE ERZ UND METALL UNION GMBH"},
{ "lat" : 49.92341, "lng" : 9.15035, "title" : "HENSEL RECYCLING"},
{ "lat" : 52.85037, "lng" : 8.74202, "title" : "EFIBA HANDLESGESELLSCHAFT MBH"},
{ "lat" : 51.457208, "lng" : 6.781826, "title" : "EISENLEGIERUNGEN HANDELSGESELLSCHAFT"},
{ "lat" : 48.83585, "lng" : 8.29308, "title" : "ELMEREC GMBH"},
{ "lat" : 53.079559, "lng" : 8.822494, "title" : "FWS GMBH"},
{ "lat" : 47.96812, "lng" : 10.19172, "title" : "GENESIS GMBH"},
{ "lat" : 49.31346, "lng" : 7.32556, "title" : "GRAFENBERG-METALL GMBH"},
{ "lat" : 49.112465, "lng" : 9.737265, "title" : "GRAS &amp; SIGLOCH GMBH &amp; CO"},
{ "lat" : 50.812073, "lng" : 10.209902, "title" : "HAMMEL RECYCLINGTECHNIK GMBH"},
{ "lat" : 51.04138, "lng" : 13.70428, "title" : "HANS MULLER JUNIOR SCHROTT UND METALLHANDEL KG"},
{ "lat" : 53.61009, "lng" : 9.29163, "title" : "HEIDEMANN RECYCLING GMBH"},
{ "lat" : 51.07642, "lng" : 6.62059, "title" : "HYDRO ALUMINIUM ROLLED PRODUCTS GMBH"},
{ "lat" : 53.51562, "lng" : 9.894329, "title" : "HYDRO ALUMINIUM ROLLED PRODUCTS GMBH"},
{ "lat" : 53.515527, "lng" : 9.851406, "title" : "IDO-LAB GMBH"},
{ "lat" : 50.87365, "lng" : 6.47504, "title" : "ILG INDUSTRIE-LARMSCHUTZ-GMBH"},
{ "lat" : 49.33667, "lng" : 8.53492, "title" : "INDRA RECYCLING GMBH METALLAUFBEREITUNG"},
{ "lat" : 52.20582, "lng" : 7.22136, "title" : "INTER METALS GMBH"},
{ "lat" : 48.71544, "lng" : 9.40565, "title" : "SCHROTT-UND METALLHANDEL M.KAATSCH GMBH"},
{ "lat" : 51.436494, "lng" : 6.848101, "title" : "KMR STAINLESS A.G."},
{ "lat" : 48.07747, "lng" : 10.131051, "title" : "LIEBHERR_HYDRAULIKBAGGER GMBH"},
{ "lat" : 50.095294, "lng" : 9.052559, "title" : "MAIREC EDELMETALLGESELLSCHAFT mbH"},
{ "lat" : 50.136549, "lng" : 8.738635, "title" : "MC METALLHANDEL GMBH"},
{ "lat" : 50.984557, "lng" : 12.432768, "title" : "METALLHANDELS &amp; RECYCLING ALTENBURG GMBH MRA"},
{ "lat" : 53.699307, "lng" : 10.00088, "title" : "METALL ALLOY METALLE LEGIERUNGEN GMBH"},
{ "lat" : 48.05246, "lng" : 7.73511, "title" : "METALLVERWERTUNGS GMBH"},
{ "lat" : 49.67328, "lng" : 8.61774, "title" : "METIMO GMBH"},
{ "lat" : 51.20983, "lng" : 6.82769, "title" : "METSO MINERALS GMBH"},
{ "lat" : 50.976758, "lng" : 6.973287, "title" : "MKR ROTHENBUCHER GMBH"},
{ "lat" : 50.586051, "lng" : 12.71315, "title" : "NICKELHUTTE AUE GMBH"},
{ "lat" : 54.76894, "lng" : 9.39564, "title" : "NORD-SCHROTT GMBH &amp; CO. KG"},
{ "lat" : 49.46235, "lng" : 8.55799, "title" : "OMNY METALLE IMPORT &amp; ECPORT E.K"},
{ "lat" : 51.24788, "lng" : 6.76627, "title" : "OTWIN KOLLMANNSBERGER"},
{ "lat" : 49.24632, "lng" : 7.34477, "title" : "PALLMANN MASCHINENFABRIK GMBH &amp; CO KG"},
{ "lat" : 51.0784, "lng" : 6.6173, "title" : "REAL ALLOY GERMANY GMBH"},
{ "lat" : 53.567381, "lng" : 10.047508, "title" : "REGENBOGEN GMBH"},
{ "lat" : 51.61662, "lng" : 7.46635, "title" : "REMONDIS ELECTRORECYCLING GMBH"},
{ "lat" : 52.76056, "lng" : 7.20312, "title" : "RECYCLING KARLA SCHMIDT"},
{ "lat" : 50.040898, "lng" : 8.231267, "title" : "RM TRADE GMBH"},
{ "lat" : 51.545489, "lng" : 7.44671, "title" : "RRD ROHSTOFF RECYCLING DORTMUND GMBH"},
{ "lat" : 51.44752, "lng" : 7.579842, "title" : "RADIATION RISK MANAGEMENT GMBH"},
{ "lat" : 48.121162, "lng" : 10.530652, "title" : "RUF MASCHINENBAU GMBH &amp; CO. KG"},
{ "lat" : 48.810076, "lng" : 10.028445, "title" : "SCHOLZ RECYCLING GMBH &amp; Co. KG"},
{ "lat" : 48.13649, "lng" : 11.45613, "title" : "METALL HANDLESGESELLSCHAFT SCHOOF &amp; HASLACHER MBH &amp; CO KG"},
{ "lat" : 48.87582, "lng" : 12.58039, "title" : "SENNEBOGEN MASCHINENFABRIK"},
{ "lat" : 50.981178, "lng" : 8.102698, "title" : "SICON GMBH"},
{ "lat" : 51.360398, "lng" : 7.447821, "title" : "SIEGFRIED JACOB METALLWERKE GMBH &amp; CO KG"},
{ "lat" : 50.947334, "lng" : 6.885873, "title" : "STEINERT ELEKTROMAGNETBAU GMBH"},
{ "lat" : 51.43163, "lng" : 6.75949, "title" : "SUDAMIN ROHSTOFF GMBH"},
{ "lat" : 51.50459, "lng" : 7.5297, "title" : "TEGOS GMBH DORTMUND"},
{ "lat" : 49.79124, "lng" : 6.69964, "title" : "THEO STEIL GMBH"},
{ "lat" : 48.18598, "lng" : 11.604196, "title" : "THERMO FISHER SCIENTIFIC MESSTECHNIK GMBH"},
{ "lat" : 50.39367, "lng" : 7.51275, "title" : "TOMRA SORTING GMBH"},
{ "lat" : 51.501732, "lng" : 6.948154, "title" : "TSR RECYCLING GMBH"},
{ "lat" : 51.82716, "lng" : 8.12423, "title" : "VENTILATORENFABRIK OELDE GMBH"},
{ "lat" : 51.829741, "lng" : 8.146396, "title" : "TEXTIL RECYCLING k&amp;A. WENKHAUS GMBH"},
{ "lat" : 49.16136, "lng" : 8.63153, "title" : "WESt BAUMASCHINEN GMBH"},
{ "lat" : 51.32925, "lng" : 7.42293, "title" : "WESTFALLEN METALL GMBH"},
{ "lat" : 48.35552, "lng" : 9.94497, "title" : "WIELAND-WERKE AG"},
{ "lat" : 40.74391, "lng" : 22.854006, "title" : "ARSENIOS G. MILADIS S.A."},
{ "lat" : 37.983917, "lng" : 23.72936, "title" : "ANAMET RECYCLING INDUSTRY SA"},
{ "lat" : 37.983917, "lng" : 23.72936, "title" : "ELVAL SA"},
{ "lat" : 40.932654, "lng" : 25.915533, "title" : "EVROS LEAD S.A."},
{ "lat" : 37.983917, "lng" : 23.72936, "title" : "HALCOR METALWORKS S.A."},
{ "lat" : 40.745704, "lng" : 22.97988, "title" : "KONSTANTINIDIS BROS S.A."},
{ "lat" : 40.738757, "lng" : 22.861303, "title" : "KONSTANTINIDIS I. &amp; GO G.P."},
{ "lat" : 40.640063, "lng" : 22.944419, "title" : "METECO SA"},
{ "lat" : 38.060906, "lng" : 23.59106, "title" : "ARCHIMEDES NEONAKIS S.A."},
{ "lat" : 40.640063, "lng" : 22.944419, "title" : "PAMMETALLIKI SNS CHRISTOS CHARDALIS"},
{ "lat" : 40.640063, "lng" : 22.944419, "title" : "SID METAL SA"},
{ "lat" : 38.054956, "lng" : 23.807655, "title" : "SIDENOR SA"},
{ "lat" : 35.630771, "lng" : 139.745467, "title" : "DAIDO KOGYO CO. LTD"},
{ "lat" : 34.690305, "lng" : 135.493063, "title" : "DAIKI ALUMINUM INDUSTRY CO. LTD"},
{ "lat" : 45.7748, "lng" : 9.279127, "title" : "ACCIAI MELLA S.P.A."},
{ "lat" : 37.454873, "lng" : 15.037671, "title" : "ACCIAIERIE DI SICILIA S.P.A"},
{ "lat" : 45.694373, "lng" : 10.319631, "title" : "AL.CA. FOND SRL"},
{ "lat" : 40.81876, "lng" : 14.203095, "title" : "ALMET SRL"},
{ "lat" : 44.406849, "lng" : 8.928346, "title" : "ALOCCI RAPPRESENTANZE IND"},
{ "lat" : 45.670232, "lng" : 10.181916, "title" : "ASSISI RAFFINERIA METALLI SPA"},
{ "lat" : 43.877262, "lng" : 11.049535, "title" : "SAURO BALLERINI"},
{ "lat" : 43.53821, "lng" : 10.31398, "title" : "BASE S.P.A."},
{ "lat" : 44.680003, "lng" : 11.295266, "title" : "ING. BONFIGLIOLI SPA"},
{ "lat" : 45.497224, "lng" : 9.187457, "title" : "CELL-DATA INTERNATIONAL SPA"},
{ "lat" : 45.015051, "lng" : 7.65833, "title" : "CLAUS METALLI SRL"},
{ "lat" : 43.57948, "lng" : 13.33973, "title" : "CO.MET.FER. SPA"},
{ "lat" : 45.71197, "lng" : 12.62405, "title" : "CO.MET.FER. SPA"},
{ "lat" : 46.003157, "lng" : 13.341069, "title" : "DANIELI CENTRO RECYCLING"},
{ "lat" : 40.305097, "lng" : 18.163969, "title" : "ECOMET SRL"},
{ "lat" : 45.268333, "lng" : 10.123779, "title" : "EURAL GNUTTI S.P.A"},
{ "lat" : 45.264, "lng" : 10.21983, "title" : "FOMA SPA"},
{ "lat" : 45.418338, "lng" : 11.824406, "title" : "FONDERIE PANDOLFO SRL"},
{ "lat" : 45.478278, "lng" : 10.138729, "title" : "FREE METALS SRL"},
{ "lat" : 45.798381, "lng" : 9.298288, "title" : "GALLI RODOLFO E FIGLI SRL"},
{ "lat" : 45.321005, "lng" : 9.02894, "title" : "INTERNATIONAL COMS SPA"},
{ "lat" : 44.504314, "lng" : 11.07995, "title" : "ITALMETALLI S.R.L"},
{ "lat" : 43.79155, "lng" : 11.22752, "title" : "KME ITALY SPA"},
{ "lat" : 41.703261, "lng" : 12.620672, "title" : "LAMACART SPA"},
{ "lat" : 45.499588, "lng" : 9.173794, "title" : "LCD TRADING SRL"},
{ "lat" : 45.680977, "lng" : 12.241294, "title" : "LCI SRL"},
{ "lat" : 44.402198, "lng" : 8.943282, "title" : "LOGISTIC GROUP SRL"},
{ "lat" : 44.822541, "lng" : 8.678611, "title" : "LOMBARDI METAL RECYCLING SRL"},
{ "lat" : 45.33227, "lng" : 9.061858, "title" : "MACPRESSE EUROPA SRL"},
{ "lat" : 45.433761, "lng" : 9.098497, "title" : "MASOTINA"},
{ "lat" : 38.962912, "lng" : 16.309272, "title" : "MECA LEAD RECYCLING SPA"},
{ "lat" : 45.50971, "lng" : 9.00992, "title" : "MET. EXTRA SPA"},
{ "lat" : 45.585386, "lng" : 9.603371, "title" : "METAL GROUP SPA"},
{ "lat" : 44.993378, "lng" : 9.007843, "title" : "METALLI 2000 SPA"},
{ "lat" : 44.669679, "lng" : 10.951998, "title" : "METALSIDER2 SPA"},
{ "lat" : 45.579733, "lng" : 10.108399, "title" : "METEF SRL"},
{ "lat" : 45.494204, "lng" : 8.945216, "title" : "NICHEL LEGHE SPA"},
{ "lat" : 45.7433, "lng" : 11.4418, "title" : "NUOVA EUROP METALLI"},
{ "lat" : 44.676083, "lng" : 10.999249, "title" : "NUOVA EUROZINOCO SPA"},
{ "lat" : 45.068399, "lng" : 10.369464, "title" : "PYRECO SRL"},
{ "lat" : 45.490382, "lng" : 10.154773, "title" : "RAFINERIA METALLI CAPRA SPA"},
{ "lat" : 45.698896, "lng" : 10.34212, "title" : "RAFFMETAL SPA"},
{ "lat" : 45.49061, "lng" : 9.336352, "title" : "RIZZINOX SRL"},
{ "lat" : 45.537838, "lng" : 10.481625, "title" : "R.M.B SPA"},
{ "lat" : 45.552228, "lng" : 10.110937, "title" : "ROTTAMI PADANA SPA"},
{ "lat" : 45.43315, "lng" : 8.221067, "title" : "SACAL SOCIETA ALLUMINIO CARISIO SPA"},
{ "lat" : 40.743604, "lng" : 14.625196, "title" : "SIDER PAGANI SRL"},
{ "lat" : 43.912476, "lng" : 12.915549, "title" : "SIDER ROTTAMI ADRIATICA S.P.A"},
{ "lat" : 45.844757, "lng" : 12.267543, "title" : "SOLIGON SPA"},
{ "lat" : 45.651506, "lng" : 9.650417, "title" : "STEMIN S.P.A"},
{ "lat" : 41.913985, "lng" : 12.46052, "title" : "TMR TRADE METAL RECYCLING"},
{ "lat" : 45.491759, "lng" : 10.429259, "title" : "TOBANELLI SPA"},
{ "lat" : 44.454754, "lng" : 11.500645, "title" : "TONDINI S.P.A."},
{ "lat" : 45.54023, "lng" : 12.072667, "title" : "TREVISAN SPA"},
{ "lat" : 45.016794, "lng" : 10.007419, "title" : "TZIMET SPA"},
{ "lat" : 45.462203, "lng" : 10.526533, "title" : "VALSABBINA COMMODITIED S.P.A."},
{ "lat" : 44.636157, "lng" : 8.639676, "title" : "VEZZANI SPA"},
{ "lat" : 45.506119, "lng" : 11.451255, "title" : "VF SPA"},
{ "lat" : 44.88224, "lng" : 11.7725, "title" : "ZOFFOLI METALLI SRL"},
{ "lat" : 51.924881, "lng" : 4.534916, "title" : "AMERICA CHUNG NAM B.V."},
{ "lat" : 52.157565, "lng" : 6.206821, "title" : "AURUBIS NETHERLANDS B.V."},
{ "lat" : 53.309292, "lng" : 6.852597, "title" : "BOLLEGRAAF RECYCLING MACHINERY B.V."},
{ "lat" : 51.690995, "lng" : 4.601941, "title" : "CRONIMET B.V"},
{ "lat" : 51.897391, "lng" : 4.447132, "title" : "CWM SURVEY &amp; INSPECTION"},
{ "lat" : 51.912634, "lng" : 4.539741, "title" : "CYCLE LINK (EUROPE) BV"},
{ "lat" : 52.154744, "lng" : 6.193027, "title" : "DALY PLASTICS B.V."},
{ "lat" : 51.826227, "lng" : 4.441711, "title" : "DE GROOT METALS B.V."},
{ "lat" : 52.357563, "lng" : 5.638248, "title" : "DOLPHIN METAL SEPERATION BV"},
{ "lat" : 51.567617, "lng" : 4.467186, "title" : "E-CRANE INTERNATIONAL EUROPE BV"},
{ "lat" : 51.367924, "lng" : 5.581606, "title" : "EUROPE METALS BV"},
{ "lat" : 51.941887, "lng" : 4.496988, "title" : "FOREST METAL GROUP BV"},
{ "lat" : 51.469821, "lng" : 5.720062, "title" : "GEBR. GERRITS METAALHANEL HELMOND B.V."},
{ "lat" : 51.949605, "lng" : 5.294373, "title" : "HANDELSONDERNEMING J. DIJS"},
{ "lat" : 51.281552, "lng" : 3.841997, "title" : "HEROS SLUISKIL B.V"},
{ "lat" : 51.973146, "lng" : 5.314048, "title" : "JACOMIJ METALEN B.V"},
{ "lat" : 51.88885, "lng" : 4.458249, "title" : "JANSEN RECYCLING GROUP BV"},
{ "lat" : 51.890829, "lng" : 4.278926, "title" : "JEWOMETAAL STAINLESS PROCESSING BV"},
{ "lat" : 26.902932, "lng" : -82.041311, "title" : "JORDEX SHIPPING &amp; FORWARDING BV"},
{ "lat" : 51.797389, "lng" : 4.63955, "title" : "KMR STAINLESS BV"},
{ "lat" : 52.325311, "lng" : 5.593444, "title" : "KOMETRIC METALRECYCLING B.V."},
{ "lat" : 51.693438, "lng" : 5.148993, "title" : "LDM TRADING B.V."},
{ "lat" : 51.283013, "lng" : 5.742409, "title" : "LEVIMET EXPORT B.V."},
{ "lat" : 51.286563, "lng" : 5.752701, "title" : "METAL RADAR BV"},
{ "lat" : 51.911028, "lng" : 4.405555, "title" : "MARINE INSPECTION AND LOGISTICS INTERNATIONAL B.V."},
{ "lat" : 52.223982, "lng" : 6.849896, "title" : "MRT BV"},
{ "lat" : 51.910123, "lng" : 4.477328, "title" : "NEOMET BV"},
{ "lat" : 52.619988, "lng" : 4.76675, "title" : "OVERDIE METALS B.V."},
{ "lat" : 30.168556, "lng" : -97.616478, "title" : "RECYCLING INTERNATIONAL"},
{ "lat" : 52.361529, "lng" : 5.636671, "title" : "REUKEMA BLOCQ &amp; MANESCHIJN B.V."},
{ "lat" : 52.059902, "lng" : 5.120384, "title" : "ROBA METALS BV"},
{ "lat" : 50.875901, "lng" : 5.720456, "title" : "RUBBER RESOURCES BV"},
{ "lat" : 51.825541, "lng" : 4.849434, "title" : "JOAN SMAAL TEXTILE RECYCLING BV"},
{ "lat" : 51.949196, "lng" : 4.544744, "title" : "STOCKX METAL TRADING B.V"},
{ "lat" : 51.962227, "lng" : 4.58487, "title" : "TRIPLE LOGISTICS BV"},
{ "lat" : 51.507471, "lng" : 3.610549, "title" : "UNITED METALS"},
{ "lat" : 52.034787, "lng" : 4.346121, "title" : "UZIMET BV"},
{ "lat" : 51.461912, "lng" : 5.676205, "title" : "VAN HOUT KABELRECYCLING"},
{ "lat" : 53.163738, "lng" : 6.993844, "title" : "VIROL RECYCLING GROUP"},
{ "lat" : 12.122422, "lng" : -68.882423, "title" : "RECUPAL CURACAO N.V"},
{ "lat" : 59.92884, "lng" : 10.827488, "title" : "BRODR LONDON TRADING A/S"},
{ "lat" : 59.770747, "lng" : 9.910865, "title" : "HELLIK TEIGEN AS"},
{ "lat" : 59.744074, "lng" : 10.204456, "title" : "HERMOD TEIGEN AS"},
{ "lat" : 59.926445, "lng" : 10.83513, "title" : "METALLCO AS."},
{ "lat" : 59.744074, "lng" : 10.204456, "title" : "NAESLUND METAL TRADING A/S"},
{ "lat" : 59.903211, "lng" : 10.828629, "title" : "NORSK GJENVINING METALLAS."},
{ "lat" : 59.913869, "lng" : 10.752245, "title" : "NORSK GJENVINING NORGE AS."},
{ "lat" : 59.916443, "lng" : 10.642103, "title" : "NORSK HYDRO ASA"},
{ "lat" : 59.372142, "lng" : 10.246354, "title" : "REVAC AS"},
{ "lat" : 60.003507, "lng" : 11.139167, "title" : "STENA RECYCLING AS"},
{ "lat" : 50.308092, "lng" : 19.47941, "title" : "BOLMET SA"},
{ "lat" : 52.169998, "lng" : 21.109562, "title" : "DROP S.A."},
{ "lat" : 50.807486, "lng" : 19.174283, "title" : "LISMAR MARCIN LISEK"},
{ "lat" : 50.254047, "lng" : 19.035094, "title" : "METALCO SP Z.O.O"},
{ "lat" : 51.200896, "lng" : 16.151531, "title" : "METRACO SA"},
{ "lat" : 51.556113, "lng" : 20.021872, "title" : "SYNTOM SA"},
{ "lat" : 1.327819, "lng" : 103.699289, "title" : "ACE EXIM PTE LTD"},
{ "lat" : 1.314307, "lng" : 103.707695, "title" : "CRONIMET SINGAPORE PTE. LTD"},
{ "lat" : 1.278836, "lng" : 103.848798, "title" : "DHATU INTERNATIONAL PTE LTD"},
{ "lat" : 1.331647, "lng" : 103.69234, "title" : "DONALD MCRATHY TRADING PTE. LTD"},
{ "lat" : 1.299217, "lng" : 103.626265, "title" : "ELMS INDUSTRIAL PTE LTD"},
{ "lat" : 1.281064, "lng" : 103.84932, "title" : "GOLD MATRIX RESOURCES PTE.LTD"},
{ "lat" : 1.352083, "lng" : 103.819836, "title" : "OVERSEAS VENTURES PTE. LTD"},
{ "lat" : 1.352083, "lng" : 103.819836, "title" : "RISHEEK GLOBAL PTE LTD"},
{ "lat" : 1.352083, "lng" : 103.819836, "title" : "SILVER DRAGON RESOURCES SINGAPORE PTE LTD"},
{ "lat" : 1.279251, "lng" : 103.847722, "title" : "SUNARGRO INTERNATIONAL PTE LTD"},
{ "lat" : 1.278886, "lng" : 103.848024, "title" : "UIL PTE LTD"},
{ "lat" : 1.328672, "lng" : 103.695863, "title" : "UNION STEEL HOLDINGS LTD"},
{ "lat" : 46.119674, "lng" : 14.548113, "title" : "J&amp;R FILMETA DOO"},
{ "lat" : 46.562935, "lng" : 15.62944, "title" : "METAL IS D.O.O"},
{ "lat" : 46.395763, "lng" : 15.797763, "title" : "TALUM D.D."},
{ "lat" : 40.444337, "lng" : -3.566307, "title" : "ALBA SERVICIOUS VERDES S.L"},
{ "lat" : 41.385064, "lng" : 2.173403, "title" : "FRANCISCO ALBERICH SA"},
{ "lat" : 41.638839, "lng" : 2.281589, "title" : "ALEACIONES PREALEACIONES Y DESOXIDANTES, SL"},
{ "lat" : 42.751187, "lng" : -8.669467, "title" : "ALUMINIOS CORTIZO S.A"},
{ "lat" : 42.160846, "lng" : -8.617729, "title" : "ALUMISEL S.A.U"},
{ "lat" : 43.504353, "lng" : -5.725046, "title" : "ALUSIGMA S.A."},
{ "lat" : 43.314848, "lng" : -2.989839, "title" : "AMPSA INTERNATIONAL S.L"},
{ "lat" : 40.416775, "lng" : -3.70379, "title" : "ATLANTIC COPPER S.L"},
{ "lat" : 43.315612, "lng" : -2.952563, "title" : "BEFESA ALUMINO S.L"},
{ "lat" : 37.389092, "lng" : -5.984459, "title" : "BILSE METALES S.L"},
{ "lat" : 38.005379, "lng" : -1.107579, "title" : "CHATARRAS MIGUEL HERNANDES S.L."},
{ "lat" : 41.482929, "lng" : 1.986929, "title" : "COMPANIA ESPANOLA DE LAMINACION S.L"},
{ "lat" : 40.155011, "lng" : -4.114135, "title" : "CRM SYNERGIES S.L"},
{ "lat" : 37.880183, "lng" : -4.809084, "title" : "CUNEXT COPPER INDUSTRIES S.L"},
{ "lat" : 43.312398, "lng" : -2.009037, "title" : "ESTANOS MATIENA SA"},
{ "lat" : 39.469907, "lng" : -0.376288, "title" : "FERCOMETAL S.L"},
{ "lat" : 41.385064, "lng" : 2.173403, "title" : "FERROMOLINS S.L"},
{ "lat" : 43.024464, "lng" : -1.978913, "title" : "GRUPO WISCO S.L"},
{ "lat" : 37.719486, "lng" : -0.98722, "title" : "HERMANOS INGLES S.A."},
{ "lat" : 41.052438, "lng" : 0.437267, "title" : "HIERROS Y METALLES CORDOBA S.A"},
{ "lat" : 37.888175, "lng" : -4.779383, "title" : "HIERROS Y METALES CORDOBA S.A."},
{ "lat" : 43.221825, "lng" : -2.87807, "title" : "IBERINOX 88, S.A"},
{ "lat" : 40.302885, "lng" : -3.468903, "title" : "IMABE IBERICA S.A"},
{ "lat" : 43.298381, "lng" : -2.946857, "title" : "INDUMETAL RECYCLING S.A"},
{ "lat" : 41.661198, "lng" : -0.791246, "title" : "INDUSTRIAS HIDRAULICAS, SA MOROS"},
{ "lat" : 41.628906, "lng" : -0.854225, "title" : "INDUSTRIAS LOPEZ SORIANO S.A."},
{ "lat" : 50.937531, "lng" : 6.960279, "title" : "LAFARGA LACAMBRA S.A"},
{ "lat" : 40.386807, "lng" : -3.478622, "title" : "LAJO Y RODRIGUEZ S.A."},
{ "lat" : 43.516403, "lng" : -8.163448, "title" : "MEGASA SIDERURGICA S.L"},
{ "lat" : 40.295879, "lng" : -3.697826, "title" : "MERCHAN RECYCLING SA"},
{ "lat" : 42.861713, "lng" : -2.655536, "title" : "METALES UNZUETA II S.L."},
{ "lat" : 40.315387, "lng" : -3.676338, "title" : "METALES VELA S.L"},
{ "lat" : 41.478099, "lng" : 2.024987, "title" : "MORGAR RECUPERACIONES S.A"},
{ "lat" : 42.947322, "lng" : -2.645842, "title" : "OTUA S.L"},
{ "lat" : 41.689748, "lng" : 2.489247, "title" : "RECUMAS"},
{ "lat" : 40.655533, "lng" : -3.182554, "title" : "RECUPERACIONES GUADALAJARA S.A."},
{ "lat" : 42.849335, "lng" : -2.388785, "title" : "RECYCLAIR S.L"},
{ "lat" : 41.497117, "lng" : 2.034924, "title" : "RECYMET SYSTEMS S.L"},
{ "lat" : 43.16307, "lng" : -2.927965, "title" : "REINOXMETAL 2002, SL"},
{ "lat" : 41.352238, "lng" : 2.132379, "title" : "COMERCIAL RIBA FARRE S.A"},
{ "lat" : 42.48875582310197, "lng" : -5.64531904910848, "title" : "RECUPERACION MATERIALES DIVERSOS SA"},
{ "lat" : 41.474098, "lng" : 2.092455, "title" : "SANTANA VALLS S.L"},
{ "lat" : 41.47196, "lng" : 2.01618, "title" : "SCRAP INOX 080 S.L."},
{ "lat" : 41.587647, "lng" : 2.249608, "title" : "UVE 2003 S.L"},
{ "lat" : 43.313697, "lng" : -1.897591, "title" : "ZB GROUP"},
{ "lat" : 60.621607, "lng" : 16.775918, "title" : "AB SANDVIK MATERIALS TECHNOLOGY"},
{ "lat" : 64.716431, "lng" : 21.154978, "title" : "BOLIDEN COMMERCIAL AB"},
{ "lat" : 59.657809, "lng" : 17.081959, "title" : "HANS ANDERSSON GROUP"},
{ "lat" : 59.354735, "lng" : 17.971489, "title" : "IL RECYCLING AB"},
{ "lat" : 59.331602, "lng" : 18.072507, "title" : "JARNBRUKSFORNODENHETER AB"},
{ "lat" : 56.248524, "lng" : 12.866866, "title" : "KAABS NORDIC AB"},
{ "lat" : 59.338437, "lng" : 18.079896, "title" : "LINDBERG &amp; SON AB"},
{ "lat" : 57.931391, "lng" : 16.192685, "title" : "M.V.METALLVARDEN AB"},
{ "lat" : 55.866903, "lng" : 12.854867, "title" : "NORDIC RAW MATERIALS AB"},
{ "lat" : 59.451815, "lng" : 17.932812, "title" : "RAGN-SELLS RECYCLABLES AB"},
{ "lat" : 56.178924, "lng" : 12.844748, "title" : "TOREC AB"},
{ "lat" : 46.519653, "lng" : 6.632273, "title" : "BAREC HOLDING SA"},
{ "lat" : 46.204129, "lng" : 6.170871, "title" : "CATERPILLAR S.A.R.L. INDUSTRIAL MARKETS"},
{ "lat" : 46.013384, "lng" : 8.955846, "title" : "DUFERCO S.A."},
{ "lat" : 47.33002, "lng" : 9.410054, "title" : "FONDEL METALS AG"},
{ "lat" : 46.196223, "lng" : 6.1496, "title" : "GEMICA SA"},
{ "lat" : 45.998372, "lng" : 8.947516, "title" : "GILIANI METALLI"},
{ "lat" : 47.38326, "lng" : 8.513409, "title" : "KURZ ALTMETALLE AG"},
{ "lat" : 47.362846, "lng" : 8.550334, "title" : "MEC METAL EXCHANGE INTERNATIONAL GMBH"},
{ "lat" : 47.446819, "lng" : 8.457638, "title" : "METALLUM METAL TRADING AG"},
{ "lat" : 47.529433, "lng" : 7.653772, "title" : "MULTIMETALL AG"},
{ "lat" : 34.525324, "lng" : 10.503202, "title" : "MARMARA INTERNATIONAL TRADING MITRA"},
{ "lat" : 35.725576, "lng" : 10.58025, "title" : "SOREAL TUNISIE"},
{ "lat" : 34.747847, "lng" : 10.766163, "title" : "SORECOMI"},
{ "lat" : 36.810386, "lng" : 10.089734, "title" : "WIFEK INTERNATIONAL TRADING"},
{ "lat" : 40.827493, "lng" : 29.330843, "title" : "ASSAN ALUMINYUM SAN VE TIC A.S"},
{ "lat" : 38.443714, "lng" : 27.381345, "title" : "BIRIM MAKINA"},
{ "lat" : 38.438527, "lng" : 27.246088, "title" : "BMS METAL MADENCILIK GERI DONUSUM SAN VE TIC A.S"},
{ "lat" : 41.093096, "lng" : 29.097241, "title" : "COLAKOGLU METALURJI A.S."},
{ "lat" : 41.008238, "lng" : 28.978359, "title" : "EMRE METAL DIS TIC LTD STI"},
{ "lat" : 41.021421, "lng" : 28.809689, "title" : "GHS GROUP LTD"},
{ "lat" : 41.042385, "lng" : 28.997233, "title" : "HATKO A.S"},
{ "lat" : 41.011264, "lng" : 28.834201, "title" : "HURSAN STAINLESS STEEL SCRAP PROCESSING"},
{ "lat" : 40.990714, "lng" : 29.101261, "title" : "ISTANBUL GRUP DIS TICARET A.S."},
{ "lat" : 41.070152, "lng" : 28.946736, "title" : "OZUNCU BAKIR METAL MADEN SANAYI VE TICARET LTD SIRKETI"},
{ "lat" : 53.493099, "lng" : -1.280452, "title" : "ABS GROUP ALLOYS &amp; METALS INTL"},
{ "lat" : 55.863744, "lng" : -4.352887, "title" : "JOHN R. ADAM AND SONS LIMITED"},
{ "lat" : 51.515169, "lng" : -0.08269, "title" : "AMALGAMATED METAL CORPORATION PLC"},
{ "lat" : 52.455851, "lng" : -2.038803, "title" : "AMG INDUSTRIES PLC"},
{ "lat" : 51.579269, "lng" : -0.338767, "title" : "ARDOUR WORLD LTD"},
{ "lat" : 51.524038, "lng" : -0.103191, "title" : "ARGUS MEDIA"},
{ "lat" : 51.756234, "lng" : -0.425816, "title" : "ARRANDENE MFG LTD"},
{ "lat" : 52.187247, "lng" : 0.97078, "title" : "ATL STEEL LTD"},
{ "lat" : 51.845348, "lng" : -2.261543, "title" : "AVON METALS LTD"},
{ "lat" : 52.521059, "lng" : -1.733922, "title" : "BEAVER METALS"},
{ "lat" : 52.210801, "lng" : -1.771562, "title" : "THE BIRD GROUP OF COMPANIES LTD"},
{ "lat" : 53.53226, "lng" : -1.126625, "title" : "C.F. BOOTH LIMITED"},
{ "lat" : 51.507726, "lng" : -0.09491, "title" : "BRADY PLC"},
{ "lat" : 52.581477, "lng" : -2.044452, "title" : "BROOKSIDE METAL COMPANY LTD"},
{ "lat" : 53.382996, "lng" : -1.410826, "title" : "DANIELI UK HOLDING LIMITED"},
{ "lat" : 52.495132, "lng" : -2.098143, "title" : "DARTMOUTH GLOBAL TRADING CO. LTD"},
{ "lat" : 51.521712, "lng" : 0.181013, "title" : "F.J. CHURCH &amp; SONS LTD"},
{ "lat" : 51.513416, "lng" : -0.076175, "title" : "FASTMARKETS LTD"},
{ "lat" : 51.539512, "lng" : 0.078071, "title" : "GLOBAL ALLIANZ LTD"},
{ "lat" : 51.556409, "lng" : -0.284913, "title" : "GLOBAL METCORP LTD"},
{ "lat" : 51.443019, "lng" : -0.407846, "title" : "GREENFIELD METALS LIMITED"},
{ "lat" : 52.499358, "lng" : -1.862133, "title" : "HAWKESWOOD METAL RECYCLING LTD"},
{ "lat" : 51.797027, "lng" : 0.648058, "title" : "INSPECTORATE INTERNATIONAL LTD"},
{ "lat" : 55.792241, "lng" : -4.070771, "title" : "IRELAND ALLOYS LTD"},
{ "lat" : 51.575423, "lng" : 0.027042, "title" : "J&amp;H SALES INTERNATIONAL LTD."},
{ "lat" : 51.567891, "lng" : 0.338751, "title" : "JACOB METALS LTD"},
{ "lat" : 52.952987, "lng" : -1.849782, "title" : "JC BAMFORD EXCAVATORS LTD"},
{ "lat" : 52.932991, "lng" : -1.18421, "title" : "JMC RECYCLING SYSTEMS LTD"},
{ "lat" : 53.527653, "lng" : -2.503094, "title" : "KAS METAL TRADING LTD"},
{ "lat" : 51.802591, "lng" : -3.233824, "title" : "L &amp; P TRADING"},
{ "lat" : 51.531506, "lng" : -0.098445, "title" : "LONDON METALS LTD"},
{ "lat" : 51.613492, "lng" : -0.050002, "title" : "METAL &amp; WSTE RECYCLING LTD"},
{ "lat" : 51.512824, "lng" : -0.102539, "title" : "METAL BULLETIN LTD"},
{ "lat" : 50.830329, "lng" : -0.75859, "title" : "METAL INTERESTS LTD"},
{ "lat" : 53.43188, "lng" : -1.425311, "title" : "METALLIS RECYCLING LIMITED"},
{ "lat" : 51.580326, "lng" : -0.340036, "title" : "MULTI TRADE LINKS UK LTD"},
{ "lat" : 53.438318, "lng" : -2.999199, "title" : "S. NORTON &amp; CO LTD"},
{ "lat" : 51.559085, "lng" : 0.70805, "title" : "OLYMPUS INDUSTRIAL"},
{ "lat" : 52.482368, "lng" : -1.856254, "title" : "ONE STOP RECYCLING LTD"},
{ "lat" : 51.702957, "lng" : -1.349272, "title" : "OXFORD INSTRUMENTS INDUSTRIAL ANALYSIS"},
{ "lat" : 51.685737, "lng" : -0.318517, "title" : "PANAMAX METALS LTD"},
{ "lat" : 52.511859, "lng" : -2.039265, "title" : "PREMIER METAL RECYCLERS"},
{ "lat" : 50.859442, "lng" : 0.246432, "title" : "H RIPLEY &amp; CO"},
{ "lat" : 52.10987, "lng" : 1.100978, "title" : "S. SACKERS (CLAYDON) LTD"},
{ "lat" : 52.292014, "lng" : -0.690491, "title" : "SALVATION ARMY TRADING COMPANY LTD"},
{ "lat" : 52.134166, "lng" : -1.778136, "title" : "SIMS GROUP UK LTD"},
{ "lat" : 51.518562, "lng" : -0.724595, "title" : "SITA UK LIMITED"},
{ "lat" : 50.994567, "lng" : -0.452314, "title" : "SOLAR METALS LTD"},
{ "lat" : 51.519427, "lng" : -0.089596, "title" : "STEMCOR LONDON LIMITED"},
{ "lat" : 51.588759, "lng" : -0.221816, "title" : "SUNBERG LTD"},
{ "lat" : 53.16897, "lng" : -2.230787, "title" : "TANDOM METALLURGICAL GROUP LTD"},
{ "lat" : 51.598222, "lng" : -0.199887, "title" : "TANGENT TRADING LTD"},
{ "lat" : 53.7204, "lng" : -2.649687, "title" : "TOM MARTIN &amp; CO LTD"},
{ "lat" : 51.09134, "lng" : -0.733248, "title" : "TRADEMET LIMITED"},
{ "lat" : 51.518222, "lng" : -0.115991, "title" : "TRILAND METALS LTD"},
{ "lat" : 51.277918, "lng" : 0.398095, "title" : "VIRIDOR RESOURCE MANAGEMENT"},
{ "lat" : 54.534947, "lng" : -1.545434, "title" : "WARD BROS (STEEL) LTD"},
{ "lat" : 52.777544, "lng" : -1.525269, "title" : "WARD RECYCLING"},
{ "lat" : 52.050621, "lng" : 1.156069, "title" : "WSM RECYCLING"},
{ "lat" : -34.848399, "lng" : -56.140192, "title" : "WERBA S.A."},
{ "lat" : 41.28692, "lng" : -72.598951, "title" : "AKJAY INTERNATIONAL LLC"},
{ "lat" : 35.813236, "lng" : -83.977372, "title" : "ALCOA INC"},
{ "lat" : 40.601964, "lng" : -74.48187, "title" : "ALEX STEWART ASSAYERS INC"},
{ "lat" : 34.015636, "lng" : -118.221355, "title" : "ALPERT &amp; ALPERT IRON &amp; METAL INC."},
{ "lat" : 38.668579, "lng" : -90.432594, "title" : "ALTER TRADING COMPANY"},
{ "lat" : 25.75125, "lng" : -80.221707, "title" : "AMI TRADING USA INC"},
{ "lat" : 40.456066, "lng" : -74.424001, "title" : "ANBAKAM METALS"},
{ "lat" : 29.477984, "lng" : -98.462917, "title" : "BEXAR COMMODITIES LLC"},
{ "lat" : 27.15058, "lng" : -80.198891, "title" : "BMB METALS LLC"},
{ "lat" : 46.214007, "lng" : -119.210694, "title" : "BRUKER ELEMENTAL"},
{ "lat" : 33.989561, "lng" : -118.268263, "title" : "CALIFORNIA METAL-X (CMX.)"},
{ "lat" : 32.898282, "lng" : -96.959945, "title" : "COMMERCIAL METALS COMPANY"},
{ "lat" : 29.643725, "lng" : -95.58263, "title" : "CNA METALS GROUP"},
{ "lat" : 41.346997, "lng" : -73.084535, "title" : "CONNECTICUT METAL INDUSTRIES"},
{ "lat" : 41.528256, "lng" : -90.480529, "title" : "DANIELI REVERSIDE PRODUCTS"},
{ "lat" : 39.101285, "lng" : -84.503116, "title" : "THE DAVID J. JOSEPH COMPANY"},
{ "lat" : 36.850387, "lng" : -119.808762, "title" : "ELECTRONIC RECYCLERS INTERNATIONAL INC"},
{ "lat" : 33.947233, "lng" : -118.177879, "title" : "ELG METALS INC"},
{ "lat" : 45.537168, "lng" : -122.703253, "title" : "ESCO CORPORATION"},
{ "lat" : 45.537168, "lng" : -122.703253, "title" : "ESCO CORPORATION"},
{ "lat" : 33.782289, "lng" : -84.416242, "title" : "GARSON &amp; SHAW LLC"},
{ "lat" : 40.47599, "lng" : -74.478008, "title" : "GDB INTERNATIONAL INC"},
{ "lat" : 40.47599, "lng" : -74.478008, "title" : "GDB INTERNATIONAL INC"},
{ "lat" : 33.743846, "lng" : -117.85458, "title" : "GLOBAL METAL RECYCLING INC"},
{ "lat" : 34.062104, "lng" : -84.418412, "title" : "GREENLAND (AMERICA) INC"},
{ "lat" : 31.967914, "lng" : -83.78809, "title" : "HARRIS"},
{ "lat" : 31.975095, "lng" : -83.784135, "title" : "HUGO NEU CORPORATION"},
{ "lat" : 40.912643, "lng" : -74.396793, "title" : "HUNTER ALLOYS LLC"},
{ "lat" : 41.571198, "lng" : -87.639075, "title" : "HUNTER DOUGLAS METALS INC"},
{ "lat" : 42.154095, "lng" : -83.175291, "title" : "HURON VALLEY STEEL CORPORATION"},
{ "lat" : 35.02302, "lng" : -80.787394, "title" : "INTERNATIONAL ALLOYS INC"},
{ "lat" : 35.02302, "lng" : -80.787394, "title" : "INTERNATIONAL ALLOYS INC"},
{ "lat" : 33.772127, "lng" : -118.185359, "title" : "K.P. FITTER &amp; ASSOCIATES INC"},
{ "lat" : 38.650645, "lng" : -90.335296, "title" : "KATAMAN METALS LLC"},
{ "lat" : 45.513278, "lng" : -122.681162, "title" : "KUROTANI NORTH AMERICA INC"},
{ "lat" : 33.624077, "lng" : -111.930066, "title" : "LIQUIDITY SERVICES INC CAG"},
{ "lat" : 32.472823, "lng" : -100.41026, "title" : "LUDLUM MEASUREMENTS INC"},
{ "lat" : 38.985904, "lng" : -77.499735, "title" : "MEKAUST INC"},
{ "lat" : 45.573672, "lng" : -122.607867, "title" : "METRO METALS NORTHWEST INC"},
{ "lat" : 33.862072, "lng" : -118.20811, "title" : "MONICO ALLOYS INC"},
{ "lat" : 33.669092, "lng" : -84.43194, "title" : "NEWELL RECYCLING LLC"},
{ "lat" : 33.78659, "lng" : -117.875098, "title" : "NEWPORT CH INTERNATIONAL"},
{ "lat" : 33.851197, "lng" : -84.366193, "title" : "NOVELIS INC"},
{ "lat" : 25.855842, "lng" : -80.181927, "title" : "OLYMPIC METALS LLC"},
{ "lat" : 41.041105, "lng" : -85.23743, "title" : "OMNISOURCE CORPORATION"},
{ "lat" : 42.790628, "lng" : -86.116132, "title" : "PADNOS"},
{ "lat" : 41.38969, "lng" : -81.440744, "title" : "PREMIER METAL SERVICES"},
{ "lat" : 33.005113, "lng" : -96.705138, "title" : "RAVI ENERGIE GROUP"},
{ "lat" : 30.178737, "lng" : -95.481829, "title" : "RIGAKU"},
{ "lat" : 40.553445, "lng" : -74.417624, "title" : "RM METALS"},
{ "lat" : 28.224101, "lng" : -80.700187, "title" : "ROYCE CORPORATION"},
{ "lat" : 33.848427, "lng" : -117.85094, "title" : "SA RECYCLING"},
{ "lat" : 40.751985, "lng" : -73.96978, "title" : "SCHNITZER STEEL INDUSTRIES"},
{ "lat" : 45.545802, "lng" : -122.707297, "title" : "SCHNITZER STEEL INDUSTRIES INC"},
{ "lat" : 38.672742, "lng" : -90.388942, "title" : "SHAPIRO METALS"},
{ "lat" : 31.929415, "lng" : -106.599521, "title" : "THE SHREDDER COMPANY LLC"},
{ "lat" : 32.977167, "lng" : -96.856405, "title" : "SI METALLICS LLC"},
{ "lat" : 40.741048, "lng" : -73.991429, "title" : "SIMS METAL MANAGEMENT GLOBAL TRADE CORPORATION"},
{ "lat" : 40.852272, "lng" : -73.51561, "title" : "STEELBRO INTERNATIONAL CO.INC"},
{ "lat" : 33.663775, "lng" : -84.394105, "title" : "TAV HOLDINGS INC"},
{ "lat" : 39.80392, "lng" : -86.045643, "title" : "TRINITY METALS LLC"},
{ "lat" : 45.048856, "lng" : -93.122119, "title" : "TSI INCORPORATED"},
{ "lat" : 40.335985, "lng" : -79.890933, "title" : "TUBE CITY IMS CORP"},
{ "lat" : 37.375615, "lng" : -121.908225, "title" : "TUNG TAI GROUP"},
{ "lat" : 33.878363, "lng" : -84.269541, "title" : "UNI-ALL GROUP LTD"},
{ "lat" : 33.95, "lng" : -118.25, "title" : "UNITED ALLOYS &amp; METALS INC"},
{ "lat" : 30.37961, "lng" : -86.311317, "title" : "US SHREDDER AND CASTING GROUP"},
{ "lat" : 32.887209, "lng" : 13.191338, "title" : "JOUDE ALKHIER INTERNATIONAL TRADE COMPANY"},
{ "lat" : 34.232062, "lng" : -86.166375, "title" : "PROGRESS RAIL SERVICES CORP"},
{ "lat" : 33.761699, "lng" : -85.907201, "title" : "J-TEC LLC"},
{ "lat" : 34.021764, "lng" : -86.088585, "title" : "SCHNITZER SOUTHEAST LLC"},
{ "lat" : 33.520661, "lng" : -86.80249, "title" : "CMC STEEL PRODUCTS"},
{ "lat" : 33.539426, "lng" : -86.671182, "title" : "LEVAND STEEL AND SUPPLY CORP"},
{ "lat" : 33.625051, "lng" : -86.687089, "title" : "LIBERTY/LAKIN NATIONAL TIRE RECYCLING LLC"},
{ "lat" : 33.528952, "lng" : -86.886523, "title" : "SCHNITZER SOUTHEAST LLC"},
{ "lat" : 33.550486, "lng" : -86.788695, "title" : "SIMS METAL MANAGEMENT"},
{ "lat" : 35.789208, "lng" : -86.400144, "title" : "ELLIS METALS INC"},
{ "lat" : 33.520661, "lng" : -86.80249, "title" : "WALKER NATIONAL NIC-DIV OF WALKER MAGNETICS GROUP-C/O THOMAS AGENCY"},
{ "lat" : 34.640978, "lng" : -87.038396, "title" : "CRONIMET CORP"},
{ "lat" : 33.774828, "lng" : -84.296312, "title" : "TENNESSEE VALLEY RECYCLING LLC DECATUR AL DIV"},
{ "lat" : 33.472227, "lng" : -86.939903, "title" : "TUBE CITY IMS LLC"},
{ "lat" : 34.020958, "lng" : -86.033884, "title" : "PSC METALS INC"},
{ "lat" : 34.734625, "lng" : -86.67578, "title" : "AGILITY LOGISTICS"},
{ "lat" : 34.727379, "lng" : -86.609102, "title" : "TENNESSEE VALLEY RECYCLING LLC DECATUR AL DIV"},
{ "lat" : 32.878399, "lng" : -85.225355, "title" : "TEAGUE INC"},
{ "lat" : 33.514308, "lng" : -86.570355, "title" : "MARATHON EQUIPMENT CO"},
{ "lat" : 30.608774, "lng" : -87.740464, "title" : "ECOVERY LLC"},
{ "lat" : 30.776931, "lng" : -88.068812, "title" : "ALTER METAL RECYCLING"},
{ "lat" : 30.695075, "lng" : -88.222935, "title" : "ASM RECYCLING INC"},
{ "lat" : 30.718773, "lng" : -88.052214, "title" : "ELG METALS INC"},
{ "lat" : 30.696441, "lng" : -88.180356, "title" : "ISA RECYCLING/ALLOYS"},
{ "lat" : 40.606401, "lng" : -73.96369, "title" : "RECYCLED FIBERS DIV SOUTHEASTERN REGION NEWARK GROUP"},
{ "lat" : 30.720107, "lng" : -88.052739, "title" : "SOUTHERN RECYCLING LLC"},
{ "lat" : 32.364571, "lng" : -86.352026, "title" : "BLAZE RECYCLING &amp; METALS LLC"},
{ "lat" : 32.36857, "lng" : -86.339794, "title" : "MONTOGOMERY IRON &amp; METAL CO"},
{ "lat" : 32.385484, "lng" : -86.309961, "title" : "SABEL STEEL SERVICE INC"},
{ "lat" : 33.572821, "lng" : -86.522456, "title" : "HRH METALS INC"},
{ "lat" : 34.491706, "lng" : -87.263018, "title" : "METAL EXCHANGE CORP"},
{ "lat" : 34.761554, "lng" : -87.588509, "title" : "WISE ALLOYS LLC"},
{ "lat" : 33.682513, "lng" : -86.692341, "title" : "RECYCLE USA INC"},
{ "lat" : 34.615248, "lng" : -86.086611, "title" : "IMPERIAL ALUMINIUM-SCOTTSBORO"},
{ "lat" : 32.43396, "lng" : -87.043674, "title" : "SCHNITZER SOUTHEAST LLC"},
{ "lat" : 34.756162, "lng" : -87.712919, "title" : "TENNESSEE VALLEY RECYCLING LLC DECATUR AL DIV"},
{ "lat" : 33.933313, "lng" : -86.19949, "title" : "ALERIS INTL-STEELE"},
{ "lat" : 30.463652, "lng" : -88.168864, "title" : "MACK MANUFACTURING INC"},
{ "lat" : 31.854181, "lng" : -85.99715, "title" : "JERRY SPURLOCK IRON &amp; METAL CO INC"},
{ "lat" : 33.592163, "lng" : -86.621119, "title" : "THE US SHREDDER AND CASTINDS GROUP"},
{ "lat" : 33.219138, "lng" : -87.564099, "title" : "DIXIE PULP &amp; PAPER INC"},
{ "lat" : 33.190986, "lng" : -87.565525, "title" : "LIBERTY RECYCLING"},
{ "lat" : 33.757054, "lng" : -88.108919, "title" : "MARATHON EQUIPMENT CO"},
{ "lat" : 61.13236, "lng" : -149.875786, "title" : "ALASKA METAL RECYCLING"},
{ "lat" : 64.812474, "lng" : -147.697089, "title" : "C&amp;R PIPE &amp; STEEL INC"},
{ "lat" : 61.583513, "lng" : -149.440656, "title" : "PIONEER SUPPLY INC-HARRIS DISTRIBUTOR"},
{ "lat" : 31.335879, "lng" : -109.553749, "title" : "ARI WEST"},
{ "lat" : 33.573923, "lng" : -111.735966, "title" : "WESTERN CAST PRTS LLC"},
{ "lat" : 33.232433, "lng" : -111.70663, "title" : "INTERNATIONAL PAPER-CENTRAL REGION SALES/EXPORT SALES - MEXICO"},
{ "lat" : 33.275729, "lng" : -111.811253, "title" : "LOADRITE"},
{ "lat" : 33.527112, "lng" : -112.178841, "title" : "GLENDALE IRON &amp; METAL"},
{ "lat" : 33.523167, "lng" : -112.169985, "title" : "RENOVATED METALS/STEEL PROCESSING INC"},
{ "lat" : 33.512186, "lng" : -112.161587, "title" : "SOUTHWEST METAL INDUSTRIES"},
{ "lat" : 33.41161, "lng" : -112.389982, "title" : "ALERIS INTL- GOODYEAR"},
{ "lat" : 33.408322, "lng" : -111.847494, "title" : "AMERICAN METALS CO INC"},
{ "lat" : 33.559982, "lng" : -112.113267, "title" : "ALLAN CO"},
{ "lat" : 33.311091, "lng" : -112.081543, "title" : "AMG RESOURCES CORP"},
{ "lat" : 33.482885, "lng" : -112.124425, "title" : "BARRY METALS CO INC"},
{ "lat" : 33.407609, "lng" : -112.130876, "title" : "BROADWAY METALS CO INC"},
{ "lat" : 33.443648, "lng" : -112.130646, "title" : "COMMODITY MANAGEMENT SERVICES INC - CMS/MORRELL LLC"},
{ "lat" : 33.426444, "lng" : -112.054164, "title" : "DMD SYSTEMS RECOVERY INC"},
{ "lat" : 33.444992, "lng" : -112.118249, "title" : "ECOLOGY AUTO PARTS"},
{ "lat" : 33.405556, "lng" : -112.005571, "title" : "E-WASTE HARVESTERS"},
{ "lat" : 33.442641, "lng" : -112.138311, "title" : "FRIEDMAN RECYCLING CO"},
{ "lat" : 33.686781, "lng" : -112.043714, "title" : "GLOBAL ELECTRONIC RECYCLING"},
{ "lat" : 33.445707, "lng" : -112.168314, "title" : "HYDRO ALUMINIUM NA"},
{ "lat" : 33.304461, "lng" : -111.994575, "title" : "KMET INTERNATIONAL"},
{ "lat" : 33.466149, "lng" : -112.106146, "title" : "LIBERTY IRON &amp; METAL HOLDING LLC"},
{ "lat" : 33.466149, "lng" : -112.106146, "title" : "LNM HOLDINGS LLC"},
{ "lat" : 33.466149, "lng" : -112.106146, "title" : "LIBERTY IRON &amp; METAL SOUTHEAST LLC"},
{ "lat" : 33.466149, "lng" : -112.106146, "title" : "M&amp;M MACHINERY LLC"},
{ "lat" : 33.441842, "lng" : -112.100495, "title" : "PHOENIX METAL TRADING INC"},
{ "lat" : 33.417791, "lng" : -112.100081, "title" : "SA PHOENIX"},
{ "lat" : 33.413886, "lng" : -112.136533, "title" : "SIMS METAL MANAGEMENT"},
{ "lat" : 33.415048, "lng" : -111.995108, "title" : "TIRE SERVICE EQUIPMENT MFG CO INC"},
{ "lat" : 33.408797, "lng" : -112.129263, "title" : "U PULL IT SELF SERVICE AUTO PARTS"},
{ "lat" : 33.43098, "lng" : -112.117198, "title" : "VALLEY FORGE &amp; BOLT MFG CO"},
{ "lat" : 33.506002, "lng" : -112.148696, "title" : "WE BUY SCRAP"},
{ "lat" : 33.44625, "lng" : -112.086276, "title" : "WESTECH RECYCLERS INC"},
{ "lat" : 33.624077, "lng" : -111.930066, "title" : "GOVERNMENT LIQUIDATION LLC AND DOD SURPLUS LLC"},
{ "lat" : 34.51337, "lng" : -110.078449, "title" : "CATALYST PAPER CORP"},
{ "lat" : 33.407195, "lng" : -111.900868, "title" : "ENVIROSURE SOLUTIONS LLC"},
{ "lat" : 33.404378, "lng" : -111.962581, "title" : "WELLS FARGO EQUIPMENT FINANCE INC"},
{ "lat" : 32.232023, "lng" : -110.959458, "title" : "GLOBAL INVESTMENT RECOVERY INC"},
{ "lat" : 32.14964, "lng" : -110.85158, "title" : "HVF WEST"},
{ "lat" : 32.191773, "lng" : -110.96099, "title" : "TUSCON IRON &amp; METAL"},
{ "lat" : 36.375191, "lng" : -93.58102, "title" : "TRG BERRYVILLE"},
{ "lat" : 35.35877, "lng" : -94.427452, "title" : "DAVIS IRON &amp; METAL INC"},
{ "lat" : 35.376267, "lng" : -94.425157, "title" : "YAFFE IRON &amp; METAL CORP"},
{ "lat" : 36.248098, "lng" : -93.147381, "title" : "TRG HARRINSON LLC"},
{ "lat" : 34.461348, "lng" : -92.939703, "title" : "TRG HOT SPRINGS LLC"},
{ "lat" : 35.842796, "lng" : -90.710894, "title" : "TRG JONESBORO LLC"},
{ "lat" : 34.747889, "lng" : -92.272425, "title" : "METAL RECYCLING CORPORATION"},
{ "lat" : 34.747889, "lng" : -92.272425, "title" : "METAL SERVICE CORPORATION"},
{ "lat" : 34.747889, "lng" : -92.272425, "title" : "METAL TRADING CORP"},
{ "lat" : 34.717672, "lng" : -92.174611, "title" : "SIMS METAL MANAGEMENT-SCHIABO LAROVA"},
{ "lat" : 34.739568, "lng" : -92.256373, "title" : "SOL ALMAN CO"},
{ "lat" : 34.77427, "lng" : -92.214287, "title" : "TENENBAUM RECYCLING GROUP LLC"},
{ "lat" : 36.340306, "lng" : -94.113317, "title" : "ROGERS IRON &amp; METAL CORP"},
{ "lat" : 36.36656, "lng" : -94.099905, "title" : "TRG ROGERS LLC"},
{ "lat" : 35.265808, "lng" : -93.082581, "title" : "JW ALUMIIUM"},
{ "lat" : 35.244142, "lng" : -91.73535, "title" : "THOMPSON RECYCLING CO INC"},
{ "lat" : 36.182918, "lng" : -94.531743, "title" : "SILOAM SPRINGS METAL RECYCLING"},
{ "lat" : 36.224903, "lng" : -94.136744, "title" : "SPRINGDALE IRON &amp; METAL LLC"},
{ "lat" : 33.431976, "lng" : -94.02356, "title" : "TRI-STATE IRON &amp; METAL CO"},
{ "lat" : 37.849115, "lng" : -122.032817, "title" : "SPECIALITY FIBRES LLC"},
{ "lat" : 34.087055, "lng" : -118.123403, "title" : "AMERICA METAL EXPORT INC"},
{ "lat" : 34.087055, "lng" : -118.123403, "title" : "POSEIDON LOGISTICS INC"},
{ "lat" : 33.85716, "lng" : -117.836261, "title" : "ADS GOLD-PL METALS"},
{ "lat" : 33.848227, "lng" : -117.850266, "title" : "DBW &amp; ASSOCIATES INC DBA DBW METALS RECYCLING"},
{ "lat" : 33.848427, "lng" : -117.85094, "title" : "SA ANAHEIM"},
{ "lat" : 34.128763, "lng" : -118.050031, "title" : "JINTIAN COPPER (USA) LTD"},
{ "lat" : 34.138063, "lng" : -118.031298, "title" : "LANE TONE INTL MATERIAL INC"},
{ "lat" : 35.367149, "lng" : -119.118348, "title" : "B2B TRADE USA CO INC"},
{ "lat" : 35.354255, "lng" : -119.024182, "title" : "SA BACKERFIELD"},
{ "lat" : 35.354736, "lng" : -118.983706, "title" : "SIERRA INTERNATIONAL MACHINERY LLC"},
{ "lat" : 35.354736, "lng" : -118.983706, "title" : "SIERRA RECYCLING &amp; DEMPLITION INC"},
{ "lat" : 35.391606, "lng" : -119.082875, "title" : "WESTERN SCRAP INC"},
{ "lat" : 37.476398, "lng" : -120.706677, "title" : "GOLDEN BY-PRODUCTS INC"},
{ "lat" : 34.050769, "lng" : -117.368084, "title" : "RUBY METALS INC"},
{ "lat" : 33.9147, "lng" : -117.890749, "title" : "COMERCIO INTERNACIONAL DE METALES INC"},
{ "lat" : 33.866977, "lng" : -118.025406, "title" : "INTERNATIONAL PAPER-NATIONAL ACCOUNTS"},
{ "lat" : 33.820646, "lng" : -118.229446, "title" : "SA CARSON-S ALAMEDA ST"},
{ "lat" : 33.875397, "lng" : -118.029518, "title" : "ECOLOGY AUTO PARTS"},
{ "lat" : 33.874693, "lng" : -118.040757, "title" : "FIVE STAR INTERNATIONAL"},
{ "lat" : 33.857844, "lng" : -118.089683, "title" : "JIA WEI RECYCLED MATERIALS INC"},
{ "lat" : 33.975613, "lng" : -117.728117, "title" : "WALKER MAGNECTICS/BUX-SHRADER DIV"},
{ "lat" : 32.59816, "lng" : -117.087641, "title" : "LAMB FUELS INC"},
{ "lat" : 32.597523, "lng" : -117.079896, "title" : "SOS METALS SAN DIEGO LLC"},
{ "lat" : 34.025253, "lng" : -117.98342, "title" : "QUEMETCO WEST LLC"},
{ "lat" : 33.710666, "lng" : -116.183526, "title" : "SA COACHELLA"},
{ "lat" : 34.051162, "lng" : -117.367669, "title" : "ATLAS PACIFIC CORP"},
{ "lat" : 34.061683, "lng" : -117.315875, "title" : "ECOLOGY AUTO PARTS"},
{ "lat" : 34.060167, "lng" : -117.314584, "title" : "SA COLTON"},
{ "lat" : 33.98089, "lng" : -118.161126, "title" : "ALLAN CO"},
{ "lat" : 33.980437, "lng" : -118.150775, "title" : "BEACON MANAGEMENT INC"},
{ "lat" : 34.006572, "lng" : -118.149932, "title" : "EWASTE CENTER LLC"},
{ "lat" : 33.992125, "lng" : -118.131476, "title" : "TZENG LONG USA INC"},
{ "lat" : 33.878789, "lng" : -118.21481, "title" : "KAWABATA AMERICAN INC"},
{ "lat" : 33.912515, "lng" : -118.221234, "title" : "MAGNA ALUMINUM REFINING INC"},
{ "lat" : 37.970327, "lng" : -122.049305, "title" : "TITUS MAINTENANCE &amp; INSTALLATION SERVICES INC"},
{ "lat" : 33.799098, "lng" : -117.504069, "title" : "VOLVO CONSTRUCTION EQUIPMENT"},
{ "lat" : 37.935221, "lng" : -122.51868, "title" : "CELLMARK INC"},
{ "lat" : 37.666689, "lng" : -122.466866, "title" : "GURONA CORP"},
{ "lat" : 35.769554, "lng" : -119.247174, "title" : "DELANO RECYCLING LLC"},
{ "lat" : 33.996906, "lng" : -117.837863, "title" : "CELEBRITY ENTERPRISE INC"},
{ "lat" : 33.999349, "lng" : -117.83466, "title" : "RALISON INTERNATIONAL INC"},
{ "lat" : 33.929506, "lng" : -118.119018, "title" : "WESTERN PACIFIC PULP &amp; PAPER"},
{ "lat" : 32.793276, "lng" : -116.975292, "title" : "CALIFORNIA METAL INC"},
{ "lat" : 32.813702, "lng" : -116.963607, "title" : "LIFESPAN TECHNOLOGY RECYCLING"},
{ "lat" : 32.802317, "lng" : -115.496955, "title" : "SA EL CENTRO"},
{ "lat" : 34.06834, "lng" : -118.068893, "title" : "FM METALS INC"},
{ "lat" : 34.060238, "lng" : -118.012358, "title" : "SA EL MONTE"},
{ "lat" : 34.067631, "lng" : -118.064121, "title" : "SOCAL METALS INC"},
{ "lat" : 34.050714, "lng" : -117.485107, "title" : "AMERICAN METAL RECYCLING"},
{ "lat" : 34.062225, "lng" : -117.49577, "title" : "ECOLOGY AUTO PARTS"},
{ "lat" : 34.107592, "lng" : -117.483779, "title" : "HOISTON INTL ENTERPRISES INC"},
{ "lat" : 34.109749, "lng" : -117.480185, "title" : "MR TUDOR COMPANIES"},
{ "lat" : 34.099265, "lng" : -117.464125, "title" : "SA FONTANA"},
{ "lat" : 34.102264, "lng" : -117.470761, "title" : "SIMON GOLDEN MOUNTAINS GROUPS"},
{ "lat" : 34.043244, "lng" : -117.522066, "title" : "TIMCO"},
{ "lat" : 34.094271, "lng" : -117.512265, "title" : "VISTA METALS CORP"},
{ "lat" : 37.505538, "lng" : -121.976748, "title" : "AER WORLDWIDE"},
{ "lat" : 37.510458, "lng" : -121.974274, "title" : "INTERNATIONAL PAPER-FREMONT"},
{ "lat" : 36.722791, "lng" : -119.780123, "title" : "ALLAN CO"},
{ "lat" : 36.688193, "lng" : -119.748783, "title" : "BRUNOS IRON &amp; METAL"},
{ "lat" : 36.69744, "lng" : -119.773724, "title" : "ELECTRONIC RECYCLERS INTERNATIONAL INC"},
{ "lat" : 36.701592, "lng" : -119.735339, "title" : "LEVIS IRON &amp; METAL CO-DIV OF SCHNITZER STEEL IND"},
{ "lat" : 36.683041, "lng" : -119.738097, "title" : "SA FRESNO"},
{ "lat" : 36.6955, "lng" : -119.783642, "title" : "WESTERN METAL CO"},
{ "lat" : 33.860468, "lng" : -118.278175, "title" : "IDEAL METAL &amp; SALVAGE CO"},
{ "lat" : 33.91165, "lng" : -118.282037, "title" : "S LETVIN &amp; SON INC"},
{ "lat" : 33.882514, "lng" : -118.273165, "title" : "SOS METALS INC"},
{ "lat" : 36.990161, "lng" : -121.554015, "title" : "METECH RECYCLING INC"},
{ "lat" : 34.132843, "lng" : -118.263676, "title" : "GLENDALE RECYCLING"},
{ "lat" : 37.614396, "lng" : -122.054122, "title" : "ANHUESER-BUSCH RECYCLING CORP"},
{ "lat" : 37.610747, "lng" : -122.065657, "title" : "SIMS METAL MANAGEMENT"},
{ "lat" : 37.642665, "lng" : -122.127829, "title" : "SIMS RECYCLING SOLUTIONS"},
{ "lat" : 34.452929, "lng" : -117.278827, "title" : "ECOLOGY AUTO PARTS INC- HESPERIA DIV"},
{ "lat" : 34.444151, "lng" : -117.286495, "title" : "SA HESPERIYA"},
{ "lat" : 33.989203, "lng" : -118.234095, "title" : "OHIO MAGNETICS INC-C/O FOXCO EQUIP SALES INC"},
{ "lat" : 33.989519, "lng" : -118.218235, "title" : "KRAMER METALS INC JOS LEVIN &amp; SONS DIVISION"},
{ "lat" : 34.120246, "lng" : -117.981362, "title" : "SA IRWINDALE"},
{ "lat" : 37.890011, "lng" : -120.582835, "title" : "GREEN ENVIROTECH CORP"},
{ "lat" : 33.927923, "lng" : -117.943163, "title" : "UNICORN METALS RECYCLING CO INC"},
{ "lat" : 34.71194, "lng" : -118.130856, "title" : "SA LANCASTER-N DIVISION ST"},
{ "lat" : 37.823357, "lng" : -121.267558, "title" : "AMG RESOURCES PACIFIC"},
{ "lat" : 38.855579, "lng" : -121.268041, "title" : "SMURFIT-STONE RECYCLING"},
{ "lat" : 33.819079, "lng" : -118.179822, "title" : "21ST CENTURY PROGRAMMING"},
{ "lat" : 33.833247, "lng" : -118.230449, "title" : "ALERIS INTL INC"},
{ "lat" : 33.786615, "lng" : -118.223864, "title" : "ALPERT &amp; ALPERT IRON &amp; METAL INC."},
{ "lat" : 33.85892, "lng" : -118.167971, "title" : "ARC RECYCLING CENTER"},
{ "lat" : 33.867226, "lng" : -118.159464, "title" : "COASTLINE EQUIPMENT"},
{ "lat" : 33.821451, "lng" : -118.229077, "title" : "CORRIDER RECYCLING"},
{ "lat" : 33.761673, "lng" : -118.262466, "title" : "SA LONG BEACH"},
{ "lat" : 33.826969, "lng" : -118.238166, "title" : "STANDARD METALS RECYCLING DIV TST INC"},
{ "lat" : 37.352971, "lng" : -122.078156, "title" : "HK METAL TRADING LIMITED"},
{ "lat" : 34.039992, "lng" : -118.27284, "title" : "ALLAN CO"},
{ "lat" : 34.015636, "lng" : -118.221355, "title" : "ALPERT &amp; ALPERT IRON &amp; METAL INC."},
{ "lat" : 33.984434, "lng" : -118.310004, "title" : "BASIC FIBERS INC"},
{ "lat" : 33.957732, "lng" : -118.231842, "title" : "BESTWAY RECYCLING COMPANY INC"},
{ "lat" : 34.015315, "lng" : -118.242451, "title" : "C&amp;M METALS INC"},
{ "lat" : 33.989561, "lng" : -118.268263, "title" : "CALIFORNIA METAL-X"},
{ "lat" : 34.049784, "lng" : -118.258232, "title" : "CASTELLON &amp; FUNDERBURK LLP"},
{ "lat" : 34.017637, "lng" : -118.22063, "title" : "EKCO METALS"},
{ "lat" : 34.049784, "lng" : -118.258232, "title" : "HEFFERNAN INSURANCE BROKERS"},
{ "lat" : 33.960853, "lng" : -118.231185, "title" : "JACK ENGLE &amp; CO"},
{ "lat" : 33.989082, "lng" : -118.241352, "title" : "KRAMER METALS"},
{ "lat" : 33.910471, "lng" : -118.282038, "title" : "NICO ALLOYS INC"},
{ "lat" : 34.014835, "lng" : -118.22844, "title" : "P KAY METAL INC"},
{ "lat" : 34.02177, "lng" : -118.233915, "title" : "SA LOS ANGELES-E 17TH ST"},
{ "lat" : 34.011022, "lng" : -118.242091, "title" : "SA LOS ANGELES-LONG BEACH AVE"},
{ "lat" : 33.94261, "lng" : -118.228037, "title" : "SA LOS ANGELES-SOUTH ALAMEDA"},
{ "lat" : 34.046621, "lng" : -118.260217, "title" : "TANGENT TRADING GROUP"},
{ "lat" : 34.132406, "lng" : -118.002552, "title" : "ALLAN CO"},
{ "lat" : 33.982141, "lng" : -118.123356, "title" : "SA MONTEBELLO"},
{ "lat" : 34.057517, "lng" : -118.116165, "title" : "JIA WEI RECYCLED MATERIALS INC"},
{ "lat" : 33.598374, "lng" : -117.206458, "title" : "STANLEY/LABOUNTY"},
{ "lat" : 32.668586, "lng" : -117.110205, "title" : "CP MANUFACTURING INC"},
{ "lat" : 38.69393, "lng" : -121.401397, "title" : "DC METALS &amp; RECYCLING"},
{ "lat" : 37.820243, "lng" : -122.286393, "title" : "CASS INC"},
{ "lat" : 37.796512, "lng" : -122.290107, "title" : "SCHNITZER STEEL PRODUCTS CO"},
{ "lat" : 38.004588, "lng" : -121.743546, "title" : "DELTA SCRAP &amp; SALVAGE"},
{ "lat" : 33.215877, "lng" : -117.365711, "title" : "ECOLOGY AUTO PARTS"},
{ "lat" : 34.058963, "lng" : -117.674972, "title" : "GEM IRON &amp; METAL INC"},
{ "lat" : 34.060974, "lng" : -117.642467, "title" : "MAI STREET FIBERS INC"},
{ "lat" : 34.060837, "lng" : -117.645249, "title" : "RERUBBER LLC"},
{ "lat" : 34.037046, "lng" : -117.621642, "title" : "SENTRY TIRE &amp; INDUSTRIAL SUPPLY"},
{ "lat" : 34.041791, "lng" : -117.602742, "title" : "TY CUSHION TIRE LLC"},
{ "lat" : 33.775595, "lng" : -117.889658, "title" : "ALDEX AMERICA INC DBA BERRY TRADING"},
{ "lat" : 33.797636, "lng" : -117.866194, "title" : "EHS OFFICE"},
{ "lat" : 33.797934, "lng" : -117.866082, "title" : "H WESTEQUIPMENT HARRIS DISTRIBUTOR"},
{ "lat" : 33.814762, "lng" : -117.858316, "title" : "VI-CAL METALS INC"},
{ "lat" : 34.207378, "lng" : -119.142703, "title" : "CALIFORNIA PUBLIC RECYCILNG METALS INC"},
{ "lat" : 34.193706, "lng" : -119.163084, "title" : "SA OXNARD"},
{ "lat" : 34.267183, "lng" : -118.420211, "title" : "HERNANDEZ METAL CO"},
{ "lat" : 33.906587, "lng" : -118.17113, "title" : "E-RECYCLING OF CALIFORNIA"},
{ "lat" : 35.686427, "lng" : -120.697684, "title" : "SA PASO ROBLES"},
{ "lat" : 33.872541, "lng" : -117.872933, "title" : "BREITER METALS INC"},
{ "lat" : 34.091291, "lng" : -117.750603, "title" : "BELLY TRADING CO"},
{ "lat" : 34.059069, "lng" : -117.727574, "title" : "POMONA SCRAP METAL"},
{ "lat" : 34.041474, "lng" : -117.726012, "title" : "SA POMONA"},
{ "lat" : 34.078674, "lng" : -118.204038, "title" : "SA PORTERVILLE"},
{ "lat" : 38.590493, "lng" : -121.281853, "title" : "SCHNITZER STEEL INDUSTRIES INC AUTO PARTS BUSINESS"},
{ "lat" : 38.624081, "lng" : -121.225748, "title" : "SCHNITZER STEEL PRODUCTS CO"},
{ "lat" : 38.572137, "lng" : -121.260454, "title" : "SIMS METAL MANAGEMENT"},
{ "lat" : 34.09253, "lng" : -117.522727, "title" : "ALL STATE PAPER &amp; METAL RECYCLING CO INC"},
{ "lat" : 34.09373, "lng" : -117.527254, "title" : "SA RANCHO CUCAMONGA"},
{ "lat" : 40.511588, "lng" : -122.378983, "title" : "NORTHSTATE RECYCLING"},
{ "lat" : 37.510107, "lng" : -122.208729, "title" : "SIMS METAL MANAGEMENT"},
{ "lat" : 37.930207, "lng" : -122.374421, "title" : "MBA POLYMERS INC"},
{ "lat" : 37.92362, "lng" : -122.365552, "title" : "SIMS METAL MANAGEMENT"},
{ "lat" : 38.811392, "lng" : -121.274081, "title" : "WESTERN BALER-HARRIS DISTRIBUTER"},
{ "lat" : 38.791473, "lng" : -121.22284, "title" : "X-BODY EQUIPMENT"},
{ "lat" : 38.351834, "lng" : -122.709456, "title" : "NICO ALLOYS INC"},
{ "lat" : 38.790253, "lng" : -121.302647, "title" : "SIMS RECYCLING SOLUTIONS"},
{ "lat" : 38.595065, "lng" : -121.494972, "title" : "COASTLINE EQUIPMENT"},
{ "lat" : 38.590019, "lng" : -121.486285, "title" : "SIMS METAL MANAGEMENT"},
{ "lat" : 32.840282, "lng" : -117.150935, "title" : "ALLAN CO"},
{ "lat" : 32.876484, "lng" : -117.170163, "title" : "ALLAN CO"},
{ "lat" : 32.552987, "lng" : -116.989182, "title" : "BAJA METAL SHREDDER LLC"},
{ "lat" : 32.78283, "lng" : -117.126018, "title" : "COMPLETE RECYCLING"},
{ "lat" : 32.577565, "lng" : -116.996022, "title" : "ECOLOGY AUTO PARTS"},
{ "lat" : 32.787197, "lng" : -117.058926, "title" : "THE HVAC EXCHANGE"},
{ "lat" : 32.890287, "lng" : -117.146487, "title" : "HYMIKE INC"},
{ "lat" : 32.692473, "lng" : -117.136229, "title" : "IMS RECYCLING SERVICES INC"},
{ "lat" : 32.705038, "lng" : -117.129364, "title" : "SA SAN DIEGO-COMMERCIAL ST"},
{ "lat" : 32.692517, "lng" : -117.125116, "title" : "SA SAN DIEGO-MAIN ST"},
{ "lat" : 37.75909, "lng" : -122.411579, "title" : "SIMS METAL MANAGEMENT"},
{ "lat" : 37.744596, "lng" : -122.424935, "title" : "WHIRL SUN INTL TRADE INC-AKA TIANJIN HONEST CO LTD"},
{ "lat" : 37.302724, "lng" : -121.91862, "title" : "CISCO SYSTEMS INC"},
{ "lat" : 37.307055, "lng" : -121.899684, "title" : "MS SERVICES LTD"},
{ "lat" : 37.31876, "lng" : -121.866307, "title" : "RECYCLED FIBERS WESTERN-SAN JOSE PLANT"},
{ "lat" : 37.309817, "lng" : -121.866963, "title" : "SIMS METAL MANAGEMENT"},
{ "lat" : 37.310612, "lng" : -121.869435, "title" : "XSTRATA RECYCLING INC"},
{ "lat" : 37.716927, "lng" : -122.18844, "title" : "ALCO IRON &amp; METAL CO"},
{ "lat" : 33.758399, "lng" : -118.252945, "title" : "SA LOS ANGELES-TERMINAL ISLAND"},
{ "lat" : 37.779246, "lng" : -121.974051, "title" : "RECYCLED FIBERS DIV / THE NEWARK GROUP"},
{ "lat" : 32.555556, "lng" : -117.047043, "title" : "RECICLADORA CACHANILLA SA DE CV"},
{ "lat" : 33.711958, "lng" : -117.86838, "title" : "SANTA ANA"},
{ "lat" : 33.743846, "lng" : -117.85458, "title" : "GLOBAL METAL RECYCLING INC"},
{ "lat" : 33.735994, "lng" : -117.845372, "title" : "INTEGRITY METAL INC"},
{ "lat" : 33.748262, "lng" : -117.895048, "title" : "SA SANTA ANA"},
{ "lat" : 34.018609, "lng" : -118.45456, "title" : "KESSLER RISK AND INSURANCE SERVICES"},
{ "lat" : 34.026098, "lng" : -118.467709, "title" : "SANTA MONICA RECYCLING"},
{ "lat" : 34.315153, "lng" : -119.102353, "title" : "VENTURA COUNTY AUTO PARTS INC"},
{ "lat" : 33.949331, "lng" : -118.17896, "title" : "CALIFORNIA METALS RECYCLING"},
{ "lat" : 33.947233, "lng" : -118.177879, "title" : "ELG METALS INC"},
{ "lat" : 33.913497, "lng" : -118.165255, "title" : "SA SOUTHGATE"},
{ "lat" : 37.953601, "lng" : -121.325569, "title" : "ALCO IRON &amp; METAL CO"},
{ "lat" : 37.983585, "lng" : -121.339428, "title" : "RECYCLED FIBERS DIV SOUTHEASTERN REGION NEWARK GROUP"},
{ "lat" : 37.944451, "lng" : -121.276309, "title" : "SIMS METAL MANAGEMENT"},
{ "lat" : 37.923966, "lng" : -121.280782, "title" : "UNIVERSAL SERVICE RECYCLING"},
{ "lat" : 34.224751, "lng" : -118.384002, "title" : "AADLEN BROS AUTO WRECKING"},
{ "lat" : 34.251835, "lng" : -118.399869, "title" : "CSC TRADING"},
{ "lat" : 34.254129, "lng" : -118.395878, "title" : "D&amp;S METAL COMPANY"},
{ "lat" : 34.229529, "lng" : -118.38375, "title" : "KRAMARS IRON &amp; METAL INC"},
{ "lat" : 34.247977, "lng" : -118.401269, "title" : "SA SUN VALLEY-SAN FERNANDO"},
{ "lat" : 34.220681, "lng" : -118.378208, "title" : "SA SUN VALLEY-TUJUNGA AVE"},
{ "lat" : 34.238137, "lng" : -118.373437, "title" : "SUN VALLEY PAPER STOCK INC"},
{ "lat" : 33.464838, "lng" : -117.12202, "title" : "COLTON EQUIPMENT INC"},
{ "lat" : 33.836457, "lng" : -116.402433, "title" : "SA THOUSANDS PALMS"},
{ "lat" : 33.836039, "lng" : -118.34745, "title" : "DAIKI ALUMINIUM INDUSTRY CO LTD"},
{ "lat" : 33.835214, "lng" : -118.312301, "title" : "HONDO TRADING AMERICA CORP"},
{ "lat" : 33.858866, "lng" : -118.313142, "title" : "TOYOTA TSUSHO AMERICA INC"},
{ "lat" : 36.208871, "lng" : -119.374984, "title" : "SA TULARE"},
{ "lat" : 38.112964, "lng" : -122.291218, "title" : "ALCO IRON &amp; METAL CO MARE ISLAND DIV"},
{ "lat" : 34.21315, "lng" : -118.451657, "title" : "CONSOLIDATED FABRICATORS CORP"},
{ "lat" : 34.276802, "lng" : -119.145048, "title" : "STANDARD INDUSTRIES"},
{ "lat" : 34.467022, "lng" : -117.364383, "title" : "ECOLOGY AUTO PARTS"},
{ "lat" : 33.15013, "lng" : -117.217398, "title" : "E-WORLD RECYCLERS LLC"},
{ "lat" : 33.993853, "lng" : -117.870527, "title" : "WP INSPECTION INC"},
{ "lat" : 38.567042, "lng" : -121.539375, "title" : "INTERNATIONAL PAPER- WEST SACRAMENTO"},
{ "lat" : 34.028492, "lng" : -118.04057, "title" : "CBM TRADING INC"},
{ "lat" : 34.015994, "lng" : -118.052504, "title" : "QUINN CO"},
{ "lat" : 33.790992, "lng" : -118.286447, "title" : "ACTION SALES &amp; METAL CO INC"},
{ "lat" : 33.799141, "lng" : -118.256316, "title" : "ECOLOGY AUTO PARTS"},
{ "lat" : 38.677127, "lng" : -121.766437, "title" : "BUYBACKPRO INC"},
{ "lat" : 39.1723, "lng" : -121.688832, "title" : "CARWORKS INC DBA EMPIRES STEEL"},
{ "lat" : 40.017724, "lng" : -105.275779, "title" : "DART METALS TRADING CO"},
{ "lat" : 38.806916, "lng" : -104.819407, "title" : "ALL ALUMINIUM AND METALS RECYCLING INC"},
{ "lat" : 38.8235, "lng" : -104.7225, "title" : "AMERICAN IRON &amp; METAL CO INC"},
{ "lat" : 38.793291, "lng" : -104.77404, "title" : "METECH RECYCLING INC"},
{ "lat" : 38.790671, "lng" : -104.776769, "title" : "SIMS METAL MANAGEMENT"},
{ "lat" : 38.8235, "lng" : -104.7225, "title" : "WESTERN SCRAP PROCESSING CO INC"},
{ "lat" : 39.821824, "lng" : -105.151479, "title" : "KARL W SCHMIDT &amp; ASSOSIATES INC"},
{ "lat" : 38.785996, "lng" : -104.81145, "title" : "ROCKY MOUNTAIN RECYCLING"},
{ "lat" : 37.307758, "lng" : -108.611906, "title" : "BELT SALVAGE CO"},
{ "lat" : 39.733849, "lng" : -105.012179, "title" : "ATLAS METAL &amp; IRON CORP"},
{ "lat" : 39.772296, "lng" : -104.982505, "title" : "ENVIROSURE SOLUTIONS LLC"},
{ "lat" : 39.788899, "lng" : -104.968322, "title" : "INTERNATIONAL PAPER-DENVER"},
{ "lat" : 39.796586, "lng" : -104.968907, "title" : "IRON &amp; METALS INC"},
{ "lat" : 39.810563, "lng" : -104.976352, "title" : "LIFESPAN TECHNOLOGY RECYCLING"},
{ "lat" : 39.794795, "lng" : -104.992382, "title" : "METECH RECYCLING INC"},
{ "lat" : 39.813736, "lng" : -104.978836, "title" : "OHIO/STEARNS MAGNETICS INC-C/O POWER TRANSMISSION SPECIALITIES INC"},
{ "lat" : 39.789584, "lng" : -104.946327, "title" : "R&amp;M ASSET SOLUTIONS"},
{ "lat" : 39.795061, "lng" : -104.96703, "title" : "SIMS METAL MANAGEMENT"},
{ "lat" : 39.67362, "lng" : -105.007682, "title" : "ALL RECYCLING"},
{ "lat" : 39.653429, "lng" : -105.016313, "title" : "C&amp;M IRON &amp; METAL CO INC"},
{ "lat" : 39.639927, "lng" : -105.01392, "title" : "WESTERN METALS RECYCLING LLC ENGLEWOOD CO PLANT"},
{ "lat" : 40.623603, "lng" : -105.085535, "title" : "ARAGON IRON &amp; METAL INC"},
{ "lat" : 40.591685, "lng" : -105.061219, "title" : "COLORADO IRON &amp; METAL INC"},
{ "lat" : 39.059089, "lng" : -108.56201, "title" : "VAN GUNDYS AMPCO INC"},
{ "lat" : 40.422774, "lng" : -104.659044, "title" : "ANDERSENS SALES &amp; SALVAGE INC"},
{ "lat" : 39.547616, "lng" : -104.882716, "title" : "GOLDEN METALS TRADING LLC"},
{ "lat" : 38.254447, "lng" : -104.609141, "title" : "WESTERN METALS RECYCLING LLC MILL SERVICE GROUP-PUEBLO"},
{ "lat" : 39.773655, "lng" : -105.082058, "title" : "ACTION RECYCLING CORP"},
{ "lat" : 41.164128, "lng" : -73.210686, "title" : "MJ METAL INC"},
{ "lat" : 41.170886, "lng" : -73.16571, "title" : "PC METALS INC"},
{ "lat" : 41.544757, "lng" : -72.304593, "title" : "M&amp;J AUTO RECYCLING INC"},
{ "lat" : 41.378352, "lng" : -73.491404, "title" : "EDWARD EHRBAR INC"},
{ "lat" : 41.768147, "lng" : -72.662835, "title" : "PRIME MATERIALS RECOVERY INC"},
{ "lat" : 42.013949, "lng" : -72.526688, "title" : "CAMEROTA SCRAP RECYCLING"},
{ "lat" : 41.363463, "lng" : -72.419879, "title" : "CALAMARI RECYCLING CO INC"},
{ "lat" : 41.03035, "lng" : -73.627425, "title" : "GREENWICH METALS INC"},
{ "lat" : 41.026885, "lng" : -73.63231, "title" : "US FERROUS TRADING DIV-TUBE CITY IMS LLC"},
{ "lat" : 41.794103, "lng" : -72.65571, "title" : "METAL MANAGEMENT AEROSPACE INC"},
{ "lat" : 41.768533, "lng" : -72.67484, "title" : "ROBINSON &amp; COLE LLP"},
{ "lat" : 41.503599, "lng" : -72.556358, "title" : "GASCOYNE METALS RECYCLING LLC"},
{ "lat" : 41.747631, "lng" : -72.559039, "title" : "LI-POTTER INTL LLC"},
{ "lat" : 41.508877, "lng" : -72.809, "title" : "WERECYCLE! INC"},
{ "lat" : 41.351904, "lng" : -71.966305, "title" : "PM RECOVERY INC - NEW ENGLAND"},
{ "lat" : 41.303069, "lng" : -72.908496, "title" : "ALDERMAN-DOW IRON &amp; METAL CO INC"},
{ "lat" : 41.30406, "lng" : -72.895843, "title" : "REGAN METAL CORP"},
{ "lat" : 41.290097, "lng" : -72.942278, "title" : "SIMS METAL MANAGEMENT"},
{ "lat" : 41.392167, "lng" : -73.290344, "title" : "ALL CONTAINER RECOVERY"},
{ "lat" : 41.292113, "lng" : -72.525488, "title" : "H GOODMASTER &amp; SON SCRAP IRON &amp; METAL LLC"},
{ "lat" : 41.339651, "lng" : -72.873317, "title" : "SIMS METAL MANAGEMENT"},
{ "lat" : 41.086721, "lng" : -73.416911, "title" : "LAJOIES AUTO WRECKING CO"},
{ "lat" : 41.65525, "lng" : -72.874885, "title" : "JW GREEN CO INC"},
{ "lat" : 41.584638, "lng" : -72.882932, "title" : "CHUCK &amp; EDDIE SCRAP DEALERS"},
{ "lat" : 41.282432, "lng" : -73.498132, "title" : "BI-METAL RECYCLING LLC"},
{ "lat" : 41.047757, "lng" : -73.526676, "title" : "LUBO USA"},
{ "lat" : 41.042545, "lng" : -73.532238, "title" : "NOBLE AMERICAS CORP"},
{ "lat" : 41.038072, "lng" : -73.552699, "title" : "PLANET METALS"},
{ "lat" : 41.046974, "lng" : -73.533557, "title" : "RUBINO BROS INC"},
{ "lat" : 41.045915, "lng" : -73.533009, "title" : "STAMFORD IRON AND METAL-DIV OF SIMS METAL"},
{ "lat" : 41.045915, "lng" : -73.533009, "title" : "TRAFIGURA AG USA INC"},
{ "lat" : 41.443349, "lng" : -72.120986, "title" : "CONNECTICUT SCRAP LLC"},
{ "lat" : 41.615248, "lng" : -73.293365, "title" : "OMNISOURCE"},
{ "lat" : 41.571527, "lng" : -73.057867, "title" : "ALBERT BROS INC"},
{ "lat" : 41.539058, "lng" : -72.974655, "title" : "CENTRAL SCRAP METAL CO INC"},
{ "lat" : 41.712412, "lng" : -72.206313, "title" : "PMR CT"},
{ "lat" : 41.865122, "lng" : -72.681199, "title" : "INTECHRA HARTFORD"},
{ "lat" : 41.622024, "lng" : -72.969683, "title" : "CONTINENTAL SCRAP METAL LLC"},
{ "lat" : 41.572533, "lng" : -72.995401, "title" : "MATTATUCK INDUSTRIAL SCRAP METAL INC"},
{ "lat" : 39.118737, "lng" : -75.504217, "title" : "MID-ATLANTIC DISMANTLEMENT CORP"},
{ "lat" : 39.155703, "lng" : -75.652121, "title" : "CANNON IRON &amp; METAL INC"},
{ "lat" : 39.709593, "lng" : -75.634978, "title" : "AMSCO WEAR PRODUCTS INC"},
{ "lat" : 39.709593, "lng" : -75.634978, "title" : "DIAMOND STATE RECYCLING CORP"},
{ "lat" : 38.895469, "lng" : -77.02733, "title" : "INTERNATIONAL PAPER"},
{ "lat" : 38.91559, "lng" : -76.933342, "title" : "JOSEPH SMITH &amp; SONS INC"},
{ "lat" : 38.912978, "lng" : -77.011825, "title" : "SUPER SALVAGE INC"},
{ "lat" : 28.632755, "lng" : -81.467185, "title" : "CMC RECYCLING"},
{ "lat" : 30.334184, "lng" : -81.402045, "title" : "CORE COMPUTING SOLUTIONS INC"},
{ "lat" : 30.282983, "lng" : -81.978297, "title" : "GERDAU AMERISTEEL CORP JACKSONVILLE STEEL MILL DIV"},
{ "lat" : 26.369104, "lng" : -80.172696, "title" : "KRIPKE ENTERPRISES INC"},
{ "lat" : 28.543424, "lng" : -82.38763, "title" : "PATRIOT METALS INC"},
{ "lat" : 29.368126, "lng" : -81.177264, "title" : "J&amp;J RECYCLING &amp; DEMO LLC"},
{ "lat" : 26.634592, "lng" : -81.945366, "title" : "GARDEN STREET IRON &amp; METAL INC"},
{ "lat" : 28.010344, "lng" : -82.709763, "title" : "ALFA ENTERPRISES USA INC"},
{ "lat" : 28.003866, "lng" : -82.730297, "title" : "METAL WORLDWIDE INC"},
{ "lat" : 28.36145, "lng" : -80.732202, "title" : "SP RECYCLING CORP-NORTH &amp; SOUTH REGION"},
{ "lat" : 26.07206, "lng" : -80.209688, "title" : "U-PULL-IT"},
{ "lat" : 29.01197, "lng" : -81.295722, "title" : "PACIFIC INTERNATIONAL TRADING INC/DANS AUTO SALVAGE INC"},
{ "lat" : 26.208975, "lng" : -80.106078, "title" : "LKQ CORPORATION"},
{ "lat" : 26.13173, "lng" : -80.170511, "title" : "SUNRISE RECYCLING LLC"},
{ "lat" : 26.618843, "lng" : -81.853118, "title" : "GARDEN STREET IRON &amp; METAL INC"},
{ "lat" : 26.62935, "lng" : -81.851822, "title" : "GARDEN STREET PAPER PRODUCTS"},
{ "lat" : 26.653392, "lng" : -81.802749, "title" : "SP RECYCLING CORP-FORT MYERS DIV"},
{ "lat" : 29.706094, "lng" : -82.342215, "title" : "CMC RECYCLING"},
{ "lat" : 29.711047, "lng" : -82.263007, "title" : "SP RECYCLING CORP-GAINESVILLE DIV"},
{ "lat" : 30.658016, "lng" : -84.383906, "title" : "TALLAHASSEE SCRAP METALS INC"},
{ "lat" : 29.23194, "lng" : -81.037471, "title" : "TRADEMARK METALS RECYCLING LLC"},
{ "lat" : 26.010128, "lng" : -80.163504, "title" : "IZZY METALS TRADING LLC"},
{ "lat" : 30.352689, "lng" : -81.643549, "title" : "BERMAN BROTHERS INC"},
{ "lat" : 30.3455, "lng" : -81.754656, "title" : "CMC RECYCLING"},
{ "lat" : 30.13908, "lng" : -81.513048, "title" : "COMPANY WRENCH/JACKSONVILLE BRANCH"},
{ "lat" : 30.324521, "lng" : -81.664058, "title" : "CSX TRANSPORTATION METALS SALES &amp; MARKETING"},
{ "lat" : 30.2419, "lng" : -81.544059, "title" : "DESERTMICRO"},
{ "lat" : 30.253785, "lng" : -81.594015, "title" : "ENAPTIVE"},
{ "lat" : 30.235211, "lng" : -81.56348, "title" : "GOLDER ASSOCIATES INC"},
{ "lat" : 30.354819, "lng" : -81.735933, "title" : "INTERNATIONAL BALER CORP"},
{ "lat" : 30.336173, "lng" : -81.677732, "title" : "MAIN RECYCLING CO INC"},
{ "lat" : 30.259328, "lng" : -81.460728, "title" : "METAL LINK INTERNATIONAL LLC"},
{ "lat" : 30.347365, "lng" : -81.644748, "title" : "RESERVE ALLOYS LLC-JACKSONVILLE"},
{ "lat" : 30.431406, "lng" : -81.573503, "title" : "JUPITER TRANSPORT SERVICES"},
{ "lat" : 26.880303, "lng" : -80.107105, "title" : "FLORIDA METAL TRADING LLC"},
{ "lat" : 30.18792, "lng" : -82.604266, "title" : "CMC RECYCLING"},
{ "lat" : 27.905125, "lng" : -81.615421, "title" : "VIKING RECYCLING INC"},
{ "lat" : 26.626219, "lng" : -80.057307, "title" : "SHELMET LLC"},
{ "lat" : 28.045045, "lng" : -81.893658, "title" : "ALLIED SCRAP PROCESSORS INC"},
{ "lat" : 28.045584, "lng" : -81.904607, "title" : "GREGCO RECYCLING INC"},
{ "lat" : 28.008439, "lng" : -81.890226, "title" : "REGENCY TECHNOLOGIES"},
{ "lat" : 28.215175, "lng" : -82.464463, "title" : "LAND O LAKES"},
{ "lat" : 27.884198, "lng" : -82.760874, "title" : "SP RECYCLING CORP-PINELLAS DIV"},
{ "lat" : 28.853272, "lng" : -82.454624, "title" : "TECHNOLOGY CONSERVATION GROUP INC"},
{ "lat" : 28.69618, "lng" : -81.357926, "title" : "PEMBERTON INC"},
{ "lat" : 28.083627, "lng" : -80.608109, "title" : "COM-CYCLE"},
{ "lat" : 28.106321, "lng" : -80.667848, "title" : "SP RECYCLING CORP-BREVARD DIV"},
{ "lat" : 25.800093, "lng" : -80.24795, "title" : "AMERIMETAL SCRAP INC"},
{ "lat" : 25.794778, "lng" : -80.241813, "title" : "FEDERAL METALS CO INC"},
{ "lat" : 25.805639, "lng" : -80.257145, "title" : "FPT-FLORIDA"},
{ "lat" : 25.796218, "lng" : -80.219972, "title" : "MIAMI WASTE PAPER"},
{ "lat" : 25.835283, "lng" : -80.355667, "title" : "NAMCO METALS MANAGEMENT INC"},
{ "lat" : 25.887659, "lng" : -80.12232, "title" : "SHULMAN CO INC"},
{ "lat" : 25.802855, "lng" : -80.252469, "title" : "SVINGA BROS CORP"},
{ "lat" : 25.917375, "lng" : -80.277453, "title" : "EPLANETEWASTE LLC"},
{ "lat" : 25.986807, "lng" : -80.337443, "title" : "GRC WIRELESS RECYCLING"},
{ "lat" : 26.220535, "lng" : -81.782157, "title" : "GARDEN STREET IRON &amp; METAL INC"},
{ "lat" : 29.187382, "lng" : -82.194249, "title" : "CMC RECYCLING"},
{ "lat" : 29.234796, "lng" : -82.127076, "title" : "ERIEZ MAGNETICS"},
{ "lat" : 29.218052, "lng" : -82.156745, "title" : "TRADEMARK METALS RECYCLING LLC - OCALA"},
{ "lat" : 29.191912, "lng" : -82.164131, "title" : "TRADEMARK METALS RECYCLING LLC - OCALA"},
{ "lat" : 29.084666, "lng" : -82.078631, "title" : "TRADEMARK METALS RECYCLING LLC - OCALA BELLEVIEW"},
{ "lat" : 29.195857, "lng" : -82.141591, "title" : "TRADEMARK METALS RECYCLING LLC - OCALA PINE AVE"},
{ "lat" : 25.89551, "lng" : -80.256736, "title" : "TRADEMARK METALS RECYCLING LLC"},
{ "lat" : 25.902317, "lng" : -80.250327, "title" : "ES ELECTRONIC AND METAL MANAGEMENT INC"},
{ "lat" : 28.608134, "lng" : -81.422558, "title" : "SP RECYCLING CORP-ORLANDO DIV"},
{ "lat" : 28.520379, "lng" : -81.38261, "title" : "TRADEMARK METALS RECYCLING LLC"},
{ "lat" : 28.438039, "lng" : -81.375112, "title" : "TRADEMARK METALS RECYCLING LLC-ORLANDO"},
{ "lat" : 28.624055, "lng" : -81.449276, "title" : "TRADEMARK METALS RECYCLING LLC-ORLANDO"},
{ "lat" : 29.686431, "lng" : -81.661203, "title" : "1ST COAST RECYCLING INC"},
{ "lat" : 26.841832, "lng" : -80.133466, "title" : "RECYCLING MANAGEMENT SYSTEMS"},
{ "lat" : 30.432781, "lng" : -87.259555, "title" : "GSI RECYCLING INC"},
{ "lat" : 30.405852, "lng" : -87.249829, "title" : "SOUTHERN RECYCLING LLC"},
{ "lat" : 30.442878, "lng" : -87.22634, "title" : "SOUTHERN SCRAP CO INC"},
{ "lat" : 27.856683, "lng" : -82.73151, "title" : "TRADEMARK METALS RECYCLING LLC"},
{ "lat" : 26.23777, "lng" : -80.140639, "title" : "TRADEMARK METALS RECYCLING LLC - POMPANO"},
{ "lat" : 28.273801, "lng" : -80.696539, "title" : "TRADEMARK METALS RECYCLING LLC"},
{ "lat" : 27.82224, "lng" : -82.72617, "title" : "SEDA ENVIRONMENTAL"},
{ "lat" : 27.760365, "lng" : -82.756209, "title" : "TRANSACT PAYMENT SYSTEMS INC"},
{ "lat" : 28.830093, "lng" : -81.330428, "title" : "ACME RECYCLING INDUSTRIES LLC"},
{ "lat" : 28.775882, "lng" : -81.255008, "title" : "ARI ELECTRONICS LLC"},
{ "lat" : 27.417437, "lng" : -82.540323, "title" : "COLUMBUS MCKINNON CORP"},
{ "lat" : 27.37084, "lng" : -82.541191, "title" : "AMERICAN ELECTRONICS RECYCLING LLC"},
{ "lat" : 27.337148, "lng" : -82.530316, "title" : "RESOURCE EXCHANGE OFAMERICA CORPORATION"},
{ "lat" : 27.328255, "lng" : -82.443823, "title" : "SGM MAGNETICS CORPORATION"},
{ "lat" : 27.36796, "lng" : -82.536104, "title" : "TRADEMARK METALS RECYCLING LLC"},
{ "lat" : 30.428723, "lng" : -84.236719, "title" : "AUTO DATA DIRECT INC"},
{ "lat" : 30.404836, "lng" : -84.306361, "title" : "RECYCLED FIBERS SOUTHEAST - TALLAHASSEE PLANT"},
{ "lat" : 28.032515, "lng" : -82.630001, "title" : "AZCON CORP - TAMPA"},
{ "lat" : 27.960579, "lng" : -82.385353, "title" : "CMC RECYCLING"},
{ "lat" : 27.958902, "lng" : -82.360616, "title" : "CREATIVE RECYCLING SYSTEMS INC"},
{ "lat" : 27.959275, "lng" : -82.423609, "title" : "FINER SCRAP PROCESSORS OF TAMPA"},
{ "lat" : 27.965757, "lng" : -82.51457, "title" : "GERDAU AMERISTEEL CORP"},
{ "lat" : 27.999174, "lng" : -82.395052, "title" : "GLOBAL INVESTMENT RECOVERY INC"},
{ "lat" : 27.938999, "lng" : -82.402503, "title" : "GS EQUIPMENT INC"},
{ "lat" : 27.966303, "lng" : -82.420534, "title" : "INTERNATIONAL CORE SUPPY INC"},
{ "lat" : 27.905753, "lng" : -82.402718, "title" : "ONESTEEL RECYCLING"},
{ "lat" : 27.960268, "lng" : -82.378208, "title" : "SOUTHERN RECYCLING LLC"},
{ "lat" : 27.957589, "lng" : -82.42897, "title" : "TRADEMARK METALS RECYCLING DBA SCRAP ALL YBOR"},
{ "lat" : 27.895903, "lng" : -82.398613, "title" : "TRADEMARK METALS RECYCLING LLC"},
{ "lat" : 27.947232, "lng" : -82.460579, "title" : "TRADEMARK METALS RECYCLING LLC"},
{ "lat" : 27.910935, "lng" : -82.437696, "title" : "TRADEMARK METALS RECYCLING LLC"},
{ "lat" : 27.724825, "lng" : -82.433887, "title" : "FERROSOURCE DIVISION OF STEM-COR USA"},
{ "lat" : 26.737012, "lng" : -80.063653, "title" : "LIBERTY SCRAP METAL INC"},
{ "lat" : 26.690998, "lng" : -80.169158, "title" : "PALM BEACH METAL INC"},
{ "lat" : 26.766553, "lng" : -80.141065, "title" : "TRADEMARK METALS RECYCLING LLC"},
{ "lat" : 26.736142, "lng" : -80.058507, "title" : "TRADEMARK METALS RECYCLING LLC"},
{ "lat" : 26.778178, "lng" : -80.112515, "title" : "TRADEMARK METALS RECYCLING LLC"},
{ "lat" : 28.853518, "lng" : -82.050574, "title" : "GLOBAL TIRE RECYCLING OF SUMTER COUNTY INC"},
{ "lat" : 28.018519, "lng" : -81.828168, "title" : "SP RECYCLING CORP-POLK DIV"},
{ "lat" : 31.568557, "lng" : -84.120119, "title" : "SCHNITZER SOUTHEAST"},
{ "lat" : 34.136862, "lng" : -84.268496, "title" : "GLOBAL MILL SUPPLY INC"},
{ "lat" : 34.072291, "lng" : -84.263322, "title" : "OMNISOURCE CORP FERROUS - BROKERAGE DIV ATLANDA OFFICE"},
{ "lat" : 33.982581, "lng" : -83.34254, "title" : "OMNISOURCE SOUTHEAST"},
{ "lat" : 33.904976, "lng" : -84.456596, "title" : "COCA-COLA RECYCLING LLC"},
{ "lat" : 33.754355, "lng" : -84.557983, "title" : "INTONU LLC"},
{ "lat" : 33.607156, "lng" : -84.530022, "title" : "KEYWELL LLC"},
{ "lat" : 33.799492, "lng" : -84.424079, "title" : "LIBERTY TIRE RECYCLING LLC"},
{ "lat" : 33.696718, "lng" : -84.42379, "title" : "METRO ALLOYS INC"},